"Country","Facility Name","Owner Name (Company)","Operator Name","Latitude","Longitude","City (Site Name)","County","State / Province / Territory","Zip Code / Postal Code","Address","Total Capacity (MW)","Total Renewable Capacity (MW)","Primary Energy Source","Primary Renewable Energy Source","Coal (MW)","Natural Gas (MW)","Petroleum (MW)","Other Energy Source (MW)","Hydroelectric (MW)","Pumped-Storage Hydroelectric (MW)","Nuclear (MW)","Solar (MW)","Wind (MW)","Geothermal (MW)","Biomass (MW)","Tidal (MW)","Source Agency","Reference Period"
"Canada","H R Milner","Maxim Power Corp","Maxim Power Corp","54.0071081","-119.1032033","Grande Cache","","Alberta","","Alberta 40","150","0","Coal","","150","0","0","0","0","0","0","0","0","0","0","0","Milner Power","2016"
"Canada","Waneta","BC Hydro (33%) / Teck Metals (66%)","FortisBC","49.0041477","-117.6128674","Pend D'Oreille River","","British Columbia","","","493.2","493.2","Hydroelectric","Hydroelectric","0","0","0","0","493.2","0","0","0","0","0","0","0","BC Hydro Quick Facts","201506"
"Canada","Charlottetown Thermal Generating Station","Maritime Electric Co Ltd","Maritime Electric Co Ltd","46.2383","-63.1182","Charlottetown","","Prince Edward Island","","","109","0","Petroleum","","0","0","109","0","0","0","0","0","0","0","0","0","Maritime Electric","201512"
"Canada","Twin Falls (Iron Ore)","","Iron Ore Co. of Canada","53.4963137","-64.5157712","","","Newfoundland and Labrador","","","225","225","Hydroelectric","Hydroelectric","0","0","0","0","225","0","0","0","0","0","0","0","CIEEDAC","201512"
"Canada","Boundary Dam","Saskatchewan Power Corp","Saskatchewan Power Corp","49.09606","-103.0305","Bienfait","","Saskatchewan","S0C 0M0","","672","0","Coal","","672","0","0","0","0","0","0","0","0","0","0","0","SaskPower","201612"
"Canada","Meridian Cogeneration","TransAlta Ltd / Husky Oil Ltd","TransAlta Ltd / Husky Oil Ltd","53.2593","-109.9512","Lloydminster","","Saskatchewan","","","210","0","Natural Gas","","0","210","0","0","0","0","0","0","0","0","0","0","SaskPower","201612"
"Canada","North Battleford","Saskatchewan Power Corp","Saskatchewan Power Corp","52.68323","-108.17154","North Battleford","","Saskatchewan","","","260","0","Natural Gas","","0","260","0","0","0","0","0","0","0","0","0","0","SaskPower","201612"
"Canada","Poplar River","Saskatchewan Power Corp","Saskatchewan Power Corp","49.0579076","-105.485058","Coronach","","Saskatchewan","S0H 0Z0","","582","0","Coal","","582","0","0","0","0","0","0","0","0","0","0","0","SaskPower","201612"
"Canada","Queen Elizabeth","Saskatchewan Power Corp","Saskatchewan Power Corp","52.0944","-106.705","Saskatoon","","Saskatchewan","","","634","0","Natural Gas","","0","634","0","0","0","0","0","0","0","0","0","0","SaskPower","201612"
"Canada","Shand","Saskatchewan Power Corp","Saskatchewan Power Corp","49.0750509","-102.8640833","Estevan","","Saskatchewan","","","276","0","Coal","","276","0","0","0","0","0","0","0","0","0","0","0","SaskPower","201612"
"Canada","Yellowhead","Saskatchewan Power Corp","Saskatchewan Power Corp","52.723374","-108.231795","North Battleford","","Saskatchewan","","","138","0","Natural Gas","","0","138","0","0","0","0","0","0","0","0","0","0","SaskPower","201612"
"Canada","Armow","Sp Armow Wind Ontario LP","","44.2043992","-81.4573523","Kincardine","","Ontario","","","180","180","Wind","Wind","0","0","0","0","0","0","0","0","180","0","0","0","CanWEA","201612"
"Canada","Baie-des-Sables","TransCanada Wind (72%) / Innergex Inc (38%)","TransCanada Wind & Innergex Inc","48.7065714","-67.8841145","Baie-des-Sables","","Québec","","","109.5","109.5","Wind","Wind","0","0","0","0","0","0","0","0","109.5","0","0","0","CanWEA","201612"
"Canada","Bear Mountain","Bear Mountain Wind LP","AltaGas Ltd","55.7041257","-120.4263595","Dawson Creek","","British Columbia","","","102","102","Wind","Wind","0","0","0","0","0","0","0","0","102","0","0","0","CanWEA","201612"
"Canada","Blackspring Ridge","EDF/Enbridge","EDF/Enbridge","50.1524879","-112.8226365","Carmangay","","Alberta","","","298.8","298.8","Wind","Wind","0","0","0","0","0","0","0","0","298.8","0","0","0","CanWEA","201612"
"Canada","Carleton","Innergex Inc (38%)","","48.2065227","-66.1389666","Carleton-sur-Mer","","Québec","","","109.5","109.5","Wind","Wind","0","0","0","0","0","0","0","0","109.5","0","0","0","CanWEA","201612"
"Canada","Cedar Point","Cedar Point II LP","Cedar Point II LP","43.0827904","-82.052755","Forest","","Ontario","","","100","100","Wind","Wind","0","0","0","0","0","0","0","0","100","0","0","0","CanWEA","201612"
"Canada","Centennial","Saskatchewan Power Corp","Saskatchewan Power Corp","50.162055","-107.4578711","Swift Current","","Saskatchewan","","","149.4","149.4","Wind","Wind","0","0","0","0","0","0","0","0","149.4","0","0","0","CanWEA","201612"
"Canada","Chatham","Kruger Energy Chatham LP","Kruger Energy Chatham LP","42.2064839","-82.3225767","Port Alma","","Ontario","","","101.2","101.2","Wind","Wind","0","0","0","0","0","0","0","0","101.2","0","0","0","CanWEA","201612"
"Canada","Comber East / West","2016 Comber Wind LP","Comber Wind LP","42.2195095","-82.5614429","Comber","","Ontario","","","165.6","165.6","Wind","Wind","0","0","0","0","0","0","0","0","165.6","0","0","0","CanWEA","201612"
"Canada","Coteau Creek","Saskatchewan Power Corp","Saskatchewan Power Corp","51.2747686","-106.873648","Nipawin","","Saskatchewan","","","186","186","Hydroelectric","Hydroelectric","0","0","0","0","186","0","0","0","0","0","0","0","SaskPower","201612"
"Canada","De l'Érable","Elecnor","Elecnor","46.1059336","-71.683885","Saint-Ferdinand","","Québec","G0N 1N0","","100","100","Wind","Wind","0","0","0","0","0","0","0","0","100","0","0","0","CanWEA","201612"
"Canada","Des Moulins I","Invenergy Wind Canada","Invenergy Wind Canada","46.1637076","-71.3546453","St-Jean-de-Brebeuf / Kinnear's Mills / Thetford Mines","","Québec","","","135.7","135.7","Wind","Wind","0","0","0","0","0","0","0","0","135.7","0","0","0","CanWEA","201612"
"Canada","Dokie","Alterra Power Corp (51%) / GE Energy Financial Services (","Dokie General Partnership","55.8117747","-122.2473534","Chetwynd","","British Columbia","","","144","144","Wind","Wind","0","0","0","0","0","0","0","0","144","0","0","0","CanWEA","201612"
"Canada","E B Campbell","Saskatchewan Power Corp","Saskatchewan Power Corp","53.6889802","-103.3475186","Saskatchewan River","","Saskatchewan","","","289","289","Hydroelectric","Hydroelectric","0","0","0","0","289","0","0","0","0","0","0","0","SaskPower","201612"
"Canada","Goshen","Goshen Wind, LP","Goshen Wind, LP","43.298621","-81.6144098","Dashwood","","Ontario","","","102.4","102.4","Wind","Wind","0","0","0","0","0","0","0","0","102.4","0","0","0","CanWEA","201612"
"Canada","Grand Renewable Energy Park","Grand Renewable Wind LP","Samsung / Pattern Energy","42.8813839","-79.7879137","Cayuga","","Ontario","","","149","149","Wind","Wind","0","0","0","0","0","0","0","0","149","0","0","0","CanWEA","201612"
"Canada","Gros-Morne II","Innergex Inc (38%) / TransCanada (42%)","","49.2201667","-65.4206855","Sainte-Madeleine-de-la-Riviere-Madeleine","","Québec","","","111","111","Wind","Wind","0","0","0","0","0","0","0","0","111","0","0","0","CanWEA","201612"
"Canada","Halkirk","Capital Power","Capital Power","52.2609478","-112.0270519","Halkrik","","Alberta","","","149.4","149.4","Wind","Wind","0","0","0","0","0","0","0","0","149.4","0","0","0","CanWEA","201612"
"Canada","Island Falls (Sk)","Saskatchewan Power Corp","Saskatchewan Power Corp","55.5284089","-102.3561468","Island Falls","","Saskatchewan","","","111","111","Hydroelectric","Hydroelectric","0","0","0","0","111","0","0","0","0","0","0","0","SaskPower","201612"
"Canada","Jardin d'Éole","Northland Power Inc","Northland Power Inc","48.7354586","-67.6658235","Saint-Ulric / Saint-Leandre","","Québec","","","133.3","133.3","Wind","Wind","0","0","0","0","0","0","0","0","133.3","0","0","0","CanWEA","201612"
"Canada","Jericho","Jericho Wind, LP","Jericho Wind, LP","43.1333108","-81.8938433","Thedford","","Ontario","","","149","149","Wind","Wind","0","0","0","0","0","0","0","0","149","0","0","0","CanWEA","201612"
"Canada","K2 Wind","K2 Wind Ontario LP","","43.9372612","-81.6399097","Dungannon","","Ontario","","","270","270","Wind","Wind","0","0","0","0","0","0","0","0","270","0","0","0","CanWEA","201612"
"Canada","Kent Hills 1 / 2","TransAlta (83%)","TransAlta (83%)","45.8193591","-64.8894309","Kent Hills","","New Brunswick","","","150","150","Wind","Wind","0","0","0","0","0","0","0","0","150","0","0","0","CanWEA","201612"
"Canada","Lac-Alfred","Enbridge (67.5%) / EDF Energies Nouvelles (20%) / Mrc of La Mitis & Matapedia (12.5%)","","48.4193582","-67.7137491","Ste-Irène / La Rédemption / St-Zénon-Lac-Humqui / St-Cléophas / TNO du Lac Alfred / TNO du Lac-à-la-","","Québec","","","300","300","Wind","Wind","0","0","0","0","0","0","0","0","300","0","0","0","CanWEA","201612"
"Canada","Le Plateau 1","","","48.0503259","-67.4302684","Matapedia / L'Ascension-de-Patapedia","","Québec","","","138.6","138.6","Wind","Wind","0","0","0","0","0","0","0","0","138.6","0","0","0","CanWEA","201612"
"Canada","Massif du Sud","Enbridge (80%) / EDF Energies Nouvelles (20%)","EDF Energies Nouvelles / Enbridge","46.5668098","-70.4849316","Saint-Luc-de-Bellechasse / Saint-Philemon / Notre-Dame-Auxiliatrice-de-Buckland / Saint-Magloire","","Québec","","","150","150","Wind","Wind","0","0","0","0","0","0","0","0","150","0","0","0","CanWEA","201612"
"Canada","Melancthon II","Melancthon Wolfe Wind LP","Canadian Hydro Developers Inc","44.1179919","-80.3129239","Dundalk","","Ontario","","","132","132","Wind","Wind","0","0","0","0","0","0","0","0","132","0","0","0","CanWEA","201612"
"Canada","Mesgi'g Ugju's'n","Innergex Inc (50%) / Mi’gmawei Mawiomi Business Corp (50%)","Innergex Inc (50%) / Mi’gmawei Mawiomi Business Corp (50%)","48.2504679","-66.7255276","Rivière-Nouvelle","","Québec","","","149.3","149.3","Wind","Wind","0","0","0","0","0","0","0","0","149.3","0","0","0","CanWEA","201612"
"Canada","Montérégie","","","45.2748346","-73.5773649","Saint-Mathieu / Saint-Isidore / Saint-Remi / Saint-Michel / Saint-Constant / Mercier","","Québec","","","101.2","101.2","Wind","Wind","0","0","0","0","0","0","0","0","101.2","0","0","0","CanWEA","201612"
"Canada","Nipawin","Saskatchewan Power Corp","Saskatchewan Power Corp","53.3209526","-104.0430781","Codette","","Saskatchewan","","","255","255","Hydroelectric","Hydroelectric","0","0","0","0","255","0","0","0","0","0","0","0","SaskPower","201612"
"Canada","Port Alma","Kruger Energy Port Alma LP","Kruger Energy Port Alma LP","42.1838851","-82.2851206","Port Alma","","Ontario","","","101.2","101.2","Wind","Wind","0","0","0","0","0","0","0","0","101.2","0","0","0","CanWEA","201612"
"Canada","Port Dover / Nanticoke","Capital Power (PDN) LP","Capital Power (PDN) LP","42.8391822","-80.0273985","Nanticoke","","Ontario","","","104.4","104.4","Wind","Wind","0","0","0","0","0","0","0","0","104.4","0","0","0","CanWEA","201612"
"Canada","Prince","Brookfield Power Wind Prince LP","Brookfield Renewable Energy Partners","46.6125517","-84.4791676","Sault Ste. Marie","","Ontario","","","189","189","Wind","Wind","0","0","0","0","0","0","0","0","189","0","0","0","CanWEA","201612"
"Canada","Quality Wind","Capital Power","Capital Power","55.1845989","-120.8546767","Tumbler Ridge","","British Columbia","","","142.2","142.2","Wind","Wind","0","0","0","0","0","0","0","0","142.2","0","0","0","CanWEA","201612"
"Canada","Rivière du Moulin 1","EDF Energies Nouvelles","EDF Energies Nouvelles","47.9744783","-71.0995584","TNO Lac Pikauba","","Québec","","","150","150","Wind","Wind","0","0","0","0","0","0","0","0","150","0","0","0","CanWEA","201612"
"Canada","Rivière du Moulin 2","EDF Energies Nouvelles","EDF Energies Nouvelles","47.9969651","-71.0560272","","","Québec","","","200","200","Wind","Wind","0","0","0","0","0","0","0","0","200","0","0","0","CanWEA","201612"
"Canada","Seigneurie de Beaupré 2","Boralex Inc / Gazmetro","Boralex Inc / Gazmetro","47.3715008","-70.8697581","TNO du Lac Jacques-Cartier","","Québec","","","131.2","131.2","Wind","Wind","0","0","0","0","0","0","0","0","131.2","0","0","0","CanWEA","201612"
"Canada","Seigneurie de Beaupré 3","Boralex Inc / Gazmetro","Boralex Inc / Gazmetro","47.3317159","-70.890548","TNO du Lac Jacques-Cartier","","Québec","","","140.6","140.6","Wind","Wind","0","0","0","0","0","0","0","0","140.6","0","0","0","CanWEA","201612"
"Canada","South Canoe","","South Canoe Wind","44.7668121","-64.3349987","","","Nova Scotia","","","102","102","Wind","Wind","0","0","0","0","0","0","0","0","102","0","0","0","CanWEA","201612"
"Canada","South Kent","South Kent Wind LP","Samsung / Pattern Energy","42.3494573","-82.1071132","Blenheim","","Ontario","","","270","270","Wind","Wind","0","0","0","0","0","0","0","0","270","0","0","0","CanWEA","201612"
"Canada","St. Joseph","Pattern Energy","Manitoba Hydro","49.1345151","-97.4205495","Montcalm","","Manitoba","","","138","138","Wind","Wind","0","0","0","0","0","0","0","0","138","0","0","0","CanWEA","201612"
"Canada","St. Léon 1 / 2","Algonquin Power","Algonquin Power","49.3471519","-98.6344794","St Leon","","Manitoba","","","120.5","120.5","Wind","Wind","0","0","0","0","0","0","0","0","120.5","0","0","0","CanWEA","201612"
"Canada","Summerhaven","Summerhaven Wind, LP","Summerhaven Wind, LP","42.8699968","-79.937662","Nanticoke","","Ontario","","","124.4","124.4","Wind","Wind","0","0","0","0","0","0","0","0","124.4","0","0","0","CanWEA","201612"
"Canada","Underwood","Enbridge Renewable Energy Infrastructure LP","Enbridge Ontario Wind Power LP","44.3416201","-81.4533368","Kincardine","","Ontario","","","181.5","181.5","Wind","Wind","0","0","0","0","0","0","0","0","181.5","0","0","0","CanWEA","201612"
"Canada","West Lincoln Niagara Region Wind Farm","","","42.9993419","-79.5034515","","","Ontario","","","230","230","Wind","Wind","0","0","0","0","0","0","0","0","230","0","0","0","CanWEA","201612"
"Canada","Gros Morne I","Innergex Inc (38%) / TransCanada (42%)","","49.1809703","-65.4614757","","","Québec","","","100.5","100.5","Wind","Wind","0","0","0","0","0","0","0","0","100.5","0","0","0","CanWEA","201612"
"Canada","L'Anse-à-Valleau","Cartier Wind Energy","Cartier Wind Energy","49.0797627","-64.6289198","Gaspe","","Québec","G4X 4A1","1201 boul. Anse-a-Valleau","100.5","100.5","Wind","Wind","0","0","0","0","0","0","0","0","100.5","0","0","0","CanWEA","201612"
"Canada","Mont-Louis","Northland Power","Northland Power","49.181825","-65.6502108","Mont-Louis","","Québec","","","100.5","100.5","Wind","Wind","0","0","0","0","0","0","0","0","100.5","0","0","0","CanWEA","201612"
"Canada","Vents du Kempt","Le Club Éolectric (51%)","Le Club Éolectric (51%)","48.317179","-67.1407936","Ste-Marguerite-Marie","","Québec","","","101.1","101.1","Wind","Wind","0","0","0","0","0","0","0","0","101.1","0","0","0","CanWEA","201612"
"Canada","Brighton Beach","Shell Energy North America (Canada) Inc","Shell Energy North America (Canada) Inc","42.2798","-83.0946","Windsor","","Ontario","","","541.3","0","Natural Gas","","0","541.3","0","0","0","0","0","0","0","0","0","0","IESO","201703"
"Canada","Cardinal","Cardinal Power LP","Cardinal Power of Canada Ltd Partnership","44.7846476","-75.3779187","Cardinal","","Ontario","","","156.3","0","Natural Gas","","0","156.3","0","0","0","0","0","0","0","0","0","0","IESO","201703"
"Canada","Greenfield Energy Centre","Greenfield Energy Centre LP","Greenfield Energy Centre LP","42.7701084","-82.4528389","Courtright","","Ontario","N0N 1H0","140 Bickford Line","1005","0","Natural Gas","","0","1005","0","0","0","0","0","0","0","0","0","0","IESO","201703"
"Canada","Lennox","Ontario Power Generation Inc","Ontario Power Generation Inc","44.1441855","-76.8480341","Stella","","Ontario","","","2000","0","Natural Gas","","0","2000","0","0","0","0","0","0","0","0","0","0","IESO","201703"
"Canada","St. Clair","St. Clair Power LP","St. Clair Power LP","42.897277","-82.3983708","Corunna","","Ontario","N0N 1G0","790 Petrolia Line","577","0","Natural Gas","","0","577","0","0","0","0","0","0","0","0","0","0","IESO","201703"
"Canada","TransAlta Sarnia Cogeneration","TransAlta Generation Partnership, An Alberta General Partnership of TransAlta Generation Ltd and TransAlta Corp","TransAlta (100%)","42.9346","-82.4381","Sarnia","","Ontario","N7T 7Y2","1475 Vidal St S","444","0","Natural Gas","","0","444","0","0","0","0","0","0","0","0","0","0","IESO","201703"
"Canada","West Windsor","West Windsor Power","","42.2807","-83.0876","Windsor","","Ontario","","","122.8","0","Natural Gas","","0","122.8","0","0","0","0","0","0","0","0","0","0","IESO","201703"
"Canada","York Energy Centre","York Energy Centre LP","York Energy Centre LP","44.0756833","-79.5308574","Newmarket","","Ontario","","","393","0","Natural Gas","","0","393","0","0","0","0","0","0","0","0","0","0","IESO","201703"
"Canada","Aubrey Falls","Brookfield Renewable Power Inc","Brookfield Renewable Energy Partners","46.9094535","-83.2129087","Elliot Lake","","Ontario","","","162","162","Hydroelectric","Hydroelectric","0","0","0","0","162","0","0","0","0","0","0","0","IESO","201703"
"Canada","Grand Renewable Energy Park","Grand Renewable Solar LP","Samsung / Pattern Energy","42.8883409","-79.8189702","Cayuga","","Ontario","","","100","100","Solar","Solar","0","0","0","0","0","0","0","100","0","0","0","0","IESO","201703"
"Canada","Sol-Luce Kingston","Kingston Solar LP","Samsung","44.3117561","-76.6511274","Odessa","","Ontario","","","100","100","Solar","Solar","0","0","0","0","0","0","0","100","0","0","0","0","IESO","201703"
"Canada","Thunderbay G3","Ontario Power Generation Inc","Ontario Power Generation Inc","48.3595712","-89.221743","Thunder Bay","","Ontario","","","135","135","Biomass","Biomass","0","0","0","0","0","0","0","0","0","0","135","0","IESO","201703"
"Canada","Wells","Brookfield Renewable Power Inc","Brookfield Renewable Energy Partners","46.4315098","-83.3859306","Thessalon","","Ontario","","","239","239","Hydroelectric","Hydroelectric","0","0","0","0","239","0","0","0","0","0","0","0","IESO","201703"
"Canada","Wolfe Island","Melancthon Wolfe Wind LP","TransAlta (100%)","44.1789769","-76.4724937","Wolfe Island","","Ontario","","","197.8","197.8","Wind","Wind","0","0","0","0","0","0","0","0","197.8","0","0","0","IESO","201703"
"Canada","Island Generation","Capital Power","Capital Power","50.069379","-125.2814523","Campbell River","","British Columbia","","4400 Orange Point Road","275","0","Natural Gas","","0","275","0","0","0","0","0","0","0","0","0","0","BC Hydro IPP supply","201704"
"Canada","East Toba","","Toba Montrose General Partnership","50.6750808","-123.9602757","Powell River","","British Columbia","","","123","123","Hydroelectric","Hydroelectric","0","0","0","0","123","0","0","0","0","0","0","0","BC Hydro IPP supply","201704"
"Canada","Howe Sound Pulp & Paper Corp","","Howe Sound Pulp & Paper Corp","49.522021","-123.4861618","Port Mellon","","British Columbia","","3838 Port Mellon Highway","112","112","Biomass","Biomass","0","0","0","0","0","0","0","0","0","0","112","0","BC Hydro IPP supply","201704"
"Canada","Kemano","","Alcan Primary Metal","53.5631714","-127.9425558","Kemano","","British Columbia","","","896","896","Hydroelectric","Hydroelectric","0","0","0","0","896","0","0","0","0","0","0","0","BC Hydro IPP supply","201704"
"Canada","Meikle Wind","","Meikle Wind Energy LP","55.2855597","-121.4690559","Tumbler Ridge","","British Columbia","","","185","185","Wind","Wind","0","0","0","0","0","0","0","0","185","0","0","0","BC Hydro IPP supply","201704"
"United States","491 E 48th Street","City of Holland","","42.7553","-86.0853","Holland","Allegan","Michigan","49423","491 E 48th Street","161.7","0","Natural Gas","","0","161.7","0","0","0","0","0","0","0","0","0","0","EIA-860, EIA-860M and EIA-923","201705"
"United States","500MW CC","New York Power Authority","","40.7889","-73.9069","Astoria","Queens","New York","11105","19-51 20th Ave","528","0","Natural Gas","","0","528","0","0","0","0","0","0","0","0","0","0","EIA-860, EIA-860M and EIA-923","201705"
"United States","A B Brown","Southern Indiana Gas & Elec Co","","37.9053","-87.715","Mount Vernon","Posey","Indiana","47620","8511 Welborn Road","706.8","0","Coal","","530.4","176.4","0","0","0","0","0","0","0","0","0","0","EIA-860, EIA-860M and EIA-923","201705"
"United States","Aberdeen CT","NorthWestern Energy - (SD)","","45.429884","-98.49396","Aberdeen","Brown","South Dakota","57401","Hwy 10","111","0","Natural Gas","","0","82.2","28.8","0","0","0","0","0","0","0","0","0","EIA-860, EIA-860M and EIA-923","201705"
"United States","Acadia Energy Center","Cleco Power LLC","","30.428611","-92.413056","Eunice","Acadia","Louisiana","70535","30385 Crowley-Eunice Hwy","1389.2","0","Natural Gas","","0","1389.2","0","0","0","0","0","0","0","0","0","0","EIA-860, EIA-860M and EIA-923","201705"
"United States","Adair Wind Farm","MidAmerican Energy Co","","41.4236","-94.665","Adair","Adair","Iowa","50002","106 Hillcrest St.","174.8","174.8","Wind","Wind","0","0","0","0","0","0","0","0","174.8","0","0","0","EIA-860, EIA-860M and EIA-923","201705"
"United States","Adams Wind","MidAmerican Energy Co","","40.92","-94.671667","Corning","Adams","Iowa","50851","301 W Dallas St","151.4","151.4","Wind","Wind","0","0","0","0","0","0","0","0","151.4","0","0","0","EIA-860, EIA-860M and EIA-923","201705"
"United States","AEP Waterford Facility","AEP Generation Resources Inc","","39.5333","-81.7178","Waterford","Washington","Ohio","45786","201 Righteous Ridge Road","921.6","0","Natural Gas","","0","921.6","0","0","0","0","0","0","0","0","0","0","EIA-860, EIA-860M and EIA-923","201705"
"United States","AES Alamitos LLC","AES Alamitos LLC","","33.7688","-118.1009","Long Beach","Los Angeles","California","90803","la","1922","0","Natural Gas","","0","1922","0","0","0","0","0","0","0","0","0","0","EIA-860, EIA-860M and EIA-923","201705"
"United States","AES Hawaii","AES Hawaii Inc","","21.303419","-158.106528","Kapolei","Honolulu","Hawaii","96707","91-086 Kaomi Loop","203","0","Coal","","203","0","0","0","0","0","0","0","0","0","0","0","EIA-860, EIA-860M and EIA-923","201705"
"United States","AES Huntington Beach LLC","AES Huntington Beach LLC","","33.6439","-117.9792","Huntington Beach","Orange","California","92646","21730 Newland Street","436","0","Natural Gas","","0","436","0","0","0","0","0","0","0","0","0","0","EIA-860, EIA-860M and EIA-923","201705"
"United States","AES Petersburg","Indianapolis Power & Light Co","","38.5281","-87.2525","Petersburg","Pike","Indiana","47567","State Road 57","2154.8","0","Coal","","2146.7","0","8.1","0","0","0","0","0","0","0","0","0","EIA-860, EIA-860M and EIA-923","201705"
"United States","AES Redondo Beach LLC","AES Redondo Beach LLC","","33.8504","-118.395","Redondo Beach","Los Angeles","California","90277","1100 N. Harbor Drive","1316.4","0","Natural Gas","","0","1316.4","0","0","0","0","0","0","0","0","0","0","EIA-860, EIA-860M and EIA-923","201705"
"United States","AES Shady Point LLC","AES Shady Point LLC","","35.1931","-94.6458","Panama","Le Flore","Oklahoma","74951","PO Box 1740","350","0","Coal","","350","0","0","0","0","0","0","0","0","0","0","0","EIA-860, EIA-860M and EIA-923","201705"
"United States","AES Warrior Run Cogeneration Facility","AES WR Ltd Partnership","","39.595171","-78.745333","Cumberland","Allegany","Maryland","21502","11600 Mexico Farms Rd, S.E.","229","0","Coal","","229","0","0","0","0","0","0","0","0","0","0","0","EIA-860, EIA-860M and EIA-923","201705"
"United States","Afton Generating Station","Public Service Co of NM","","32.114185","-106.846483","La Mesa","Dona Ana","New Mexico","88044","10100 West Afton Road","287","0","Natural Gas","","0","287","0","0","0","0","0","0","0","0","0","0","EIA-860, EIA-860M and EIA-923","201705"
"United States","Agua Caliente Solar Project","Agua Caliente Solar","","32.9774","-113.4945","Dateland","Yuma","Arizona","85333","67500 East Palomas Rd","347.7","347.7","Solar","Solar","0","0","0","0","0","0","0","347.7","0","0","0","0","EIA-860, EIA-860M and EIA-923","201705"
"United States","Agua Fria","Salt River Project","","33.5561","-112.2153","Glendale","Maricopa","Arizona","85303","7302 W Northern Ave","613.5","0.2","Natural Gas","Solar","0","613.3","0","0","0","0","0","0.2","0","0","0","0","EIA-860, EIA-860M and EIA-923","201705"
"United States","Air Products Port Arthur","Air Products LLC","","29.866497","-93.96515","Port Arthur","Jefferson","Texas","77640","1801 S Gulfway Drive","169.1","0","Natural Gas","","0","169.1","0","0","0","0","0","0","0","0","0","0","EIA-860, EIA-860M and EIA-923","201705"
"United States","AL Sandersville LLC","SEPG Operating Services, LLC ALS","","33.1189","-82.8608","Warthen","Washington","Georgia","31094","1600 Mills Lindsey School Road","692","0","Natural Gas","","0","692","0","0","0","0","0","0","0","0","0","0","EIA-860, EIA-860M and EIA-923","201705"
"United States","Allen S King","Northern States Power Co - Minnesota","","45.03","-92.7786","Oak Park Heights","Washington","Minnesota","55003","1103 King Plant Rd.","598.4","0","Coal","","598.4","0","0","0","0","0","0","0","0","0","0","0","EIA-860, EIA-860M and EIA-923","201705"
"United States","Allen Steam Plant","Tennessee Valley Authority","","35.074087","-90.14868","Memphis","Shelby","Tennessee","38109","2574 Plant Rd.","1610.8","0","Coal","","990","620.8","0","0","0","0","0","0","0","0","0","0","EIA-860, EIA-860M and EIA-923","201705"
"United States","Alliant Energy Neenah","Wisconsin Power & Light Co","","44.1936","-88.5064","Neenah","Winnebago","Wisconsin","52601","200 County Road CB","371","0","Natural Gas","","0","371","0","0","0","0","0","0","0","0","0","0","EIA-860, EIA-860M and EIA-923","201705"
"United States","Almond Power Plant","Turlock Irrigation District","","37.5744","-120.985","Modesto","Stanislaus","California","95358","4500 Crows Landing Road","223.5","0","Natural Gas","","0","223.5","0","0","0","0","0","0","0","0","0","0","EIA-860, EIA-860M and EIA-923","201705"
"United States","Alpine Power Plant","Wolverine Power Supply Coop","","45.063748","-84.825348","Elmira","Otsego","Michigan","49730","7432 M-32","453.8","0","Natural Gas","","0","453.8","0","0","0","0","0","0","0","0","0","0","EIA-860, EIA-860M and EIA-923","201705"
"United States","Alsey","Prairie Power, Inc","","39.569771","-90.43602","Alsey","Scott","Illinois","62694","Highway 106 South","173","0","Natural Gas","","0","173","0","0","0","0","0","0","0","0","0","0","EIA-860, EIA-860M and EIA-923","201705"
"United States","Alta Wind Energy Center I","Terra-Gen Operating Co LLC","","35.033725","-118.353422","Mojave","Kern","California","93501","15100 Tehachapi Willow Springs","150","150","Wind","Wind","0","0","0","0","0","0","0","0","150","0","0","0","EIA-860, EIA-860M and EIA-923","201705"
"United States","Alta Wind Energy Center II","Terra-Gen Operating Co LLC","","35.023889","-118.295278","Mojave","Kern","California","93501","14047 90th Street West","150","150","Wind","Wind","0","0","0","0","0","0","0","0","150","0","0","0","EIA-860, EIA-860M and EIA-923","201705"
"United States","Alta Wind Energy Center III","Terra-Gen Operating Co LLC","","35.023889","-118.295278","Mojave","Kern","California","93501","14047 90th Street West","150","150","Wind","Wind","0","0","0","0","0","0","0","0","150","0","0","0","EIA-860, EIA-860M and EIA-923","201705"
"United States","Alta Wind Energy Center IV","Terra-Gen Operating Co LLC","","35.008611","-118.242222","Mojave","Kern","California","93501","12941 60th Street West","102","102","Wind","Wind","0","0","0","0","0","0","0","0","102","0","0","0","EIA-860, EIA-860M and EIA-923","201705"
"United States","Alta Wind Energy Center V","Terra-Gen Operating Co LLC","","35.008611","-118.242222","Mojave","Kern","California","93501","12941 60th Street West","168","168","Wind","Wind","0","0","0","0","0","0","0","0","168","0","0","0","EIA-860, EIA-860M and EIA-923","201705"
"United States","Alta Wind VIII","Brookfield Energy Marketing LP","","35.026683","-118.234811","Mojave","Kern","California","93501","6703 Oak Creek Road","150","150","Wind","Wind","0","0","0","0","0","0","0","0","150","0","0","0","EIA-860, EIA-860M and EIA-923","201705"
"United States","Alta Wind X","Terra-Gen Operating Co LLC","","35.06","-118.2","Mojave","Kern","California","93501","8650 Oak Creek Road","138","138","Wind","Wind","0","0","0","0","0","0","0","0","138","0","0","0","EIA-860, EIA-860M and EIA-923","201705"
"United States","Ames Electric Services Power Plant","City of Ames - (IA)","","42.0258","-93.6089","Ames","Story","Iowa","50010","200 E 5th St","108.8","0","Natural Gas","","0","108.8","0","0","0","0","0","0","0","0","0","0","EIA-860, EIA-860M and EIA-923","201705"
"United States","Anadarko Plant","Western Farmers Elec Coop, Inc","","35.0847","-98.23","Anadarko","Caddo","Oklahoma","73005","701 NE 7TH STREET","534.9","0","Natural Gas","","0","534.9","0","0","0","0","0","0","0","0","0","0","EIA-860, EIA-860M and EIA-923","201705"
"United States","Anclote","Duke Energy Florida, LLC","","28.184444","-82.788611","Holiday","Pasco","Florida","34691","1729 Baillies Bluff Road","1112.4","0","Natural Gas","","0","1112.4","0","0","0","0","0","0","0","0","0","0","EIA-860, EIA-860M and EIA-923","201705"
"United States","Anderson","Indiana Municipal Power Agency","","40.0529","-85.7389","Anderson","Madison","Indiana","46011","6035 Park Road","168.7","0","Natural Gas","","0","168.7","0","0","0","0","0","0","0","0","0","0","EIA-860, EIA-860M and EIA-923","201705"
"United States","Androscoggin Energy Center","Verso Paper Androscoggin LLC","","44.506315","-70.242312","Jay","Franklin","Maine","4239","Gate 15 Riley Road","163.5","0","Natural Gas","","0","163.5","0","0","0","0","0","0","0","0","0","0","EIA-860, EIA-860M and EIA-923","201705"
"United States","Angus Anson","Northern States Power Co - Minnesota","","43.60347","-96.6356","Sioux Falls","Minnehaha","South Dakota","57101","7100 East Rice St.","405.7","0","Natural Gas","","0","405.7","0","0","0","0","0","0","0","0","0","0","EIA-860, EIA-860M and EIA-923","201705"
"United States","ANP Bellingham Energy Project","ANP Bellingham Energy Company LLC","","42.110577","-71.453468","Bellingham","Norfolk","Massachusetts","2019","155 Maple Street","578","0","Natural Gas","","0","578","0","0","0","0","0","0","0","0","0","0","EIA-860, EIA-860M and EIA-923","201705"
"United States","ANP Blackstone Energy Project","ANP Blackstone Energy Company LLC","","42.059876","-71.515811","Blackstone","Worcester","Massachusetts","1504","204 Elm Street","578","0","Natural Gas","","0","578","0","0","0","0","0","0","0","0","0","0","EIA-860, EIA-860M and EIA-923","201705"
"United States","Anson County Generation Facility","North Carolina El Member Corp","","34.968651","-79.921738","Lilesville","Anson","North Carolina","28091","749 Blewett Falls Road","343.8","0","Natural Gas","","0","343.8","0","0","0","0","0","0","0","0","0","0","EIA-860, EIA-860M and EIA-923","201705"
"United States","Antelope Station","Golden Spread Electric Cooperative, Inc","","33.865","-101.843333","Abernathy","Hale","Texas","79311","1454 CR 315","167.4","0","Natural Gas","","0","167.4","0","0","0","0","0","0","0","0","0","0","EIA-860, EIA-860M and EIA-923","201705"
"United States","Antelope Valley","Basin Electric Power Coop","","47.370542","-101.83566","Beulah","Mercer","North Dakota","58523","Hwy 200","869.8","0","Coal","","869.8","0","0","0","0","0","0","0","0","0","0","0","EIA-860, EIA-860M and EIA-923","201705"
"United States","Apache Station","Arizona Electric Pwr Coop Inc","","32.0603","-109.8931","Cochise","Cochise","Arizona","85606","3525 N US Hwy 191","660.7","0","Coal","","408","252.7","0","0","0","0","0","0","0","0","0","0","EIA-860, EIA-860M and EIA-923","201705"
"United States","Apex Generating Station","Los Angeles Department of Water & Power","","36.415999","-114.960916","Las Vegas","Clark","Nevada","89165","15555 Apex Power Parkway","600.6","0","Natural Gas","","0","600.6","0","0","0","0","0","0","0","0","0","0","EIA-860, EIA-860M and EIA-923","201705"
"United States","Arapahoe Combustion Turbine Project","SWG Arapahoe, LLC","","39.6692","-105.0018","Denver","Denver","Colorado","80223","2601 South Platte River  Road","194","0","Natural Gas","","0","194","0","0","0","0","0","0","0","0","0","0","EIA-860, EIA-860M and EIA-923","201705"
"United States","Arbuckle Mountain Wind Farm LLC","Arbuckle Mountain Wind Farm LLC","","34.386944","-97.136944","Davis","Murray","Oklahoma","73030","9251 HWY 77S","100","100","Wind","Wind","0","0","0","0","0","0","0","0","100","0","0","0","EIA-860, EIA-860M and EIA-923","201705"
"United States","ArcelorMittal Burns Harbor","ArcelorMittal Burns Harbor Inc","","41.635","-87.1387","Burns Harbor","Porter","Indiana","46304","US Highway 12","176.2","0","Other","","0","0","0","176.2","0","0","0","0","0","0","0","0","EIA-860, EIA-860M and EIA-923","201705"
"United States","ArcelorMittal Indiana Harbor West","ArcelorMittal Indiana Harbor West","","41.663765","-87.452325","East Chicago","Lake","Indiana","46312","3001 Dickey Rd.","152","0","Other","","0","0","0","152","0","0","0","0","0","0","0","0","EIA-860, EIA-860M and EIA-923","201705"
"United States","Archer Daniels Midland Cedar Rapids","Archer Daniels Midland Co","","41.9221","-91.6875","Cedar Rapids","Linn","Iowa","52406","1350 Waconia Ave SE","294.6","0","Coal","","256.1","38.5","0","0","0","0","0","0","0","0","0","0","EIA-860, EIA-860M and EIA-923","201705"
"United States","Archer Daniels Midland Clinton","Archer Daniels Midland Co","","41.8206","-90.2097","Clinton","Clinton","Iowa","52732","1251 Beaver Channel Parkway","180","0","Coal","","180","0","0","0","0","0","0","0","0","0","0","0","EIA-860, EIA-860M and EIA-923","201705"
"United States","Archer Daniels Midland Decatur","Archer Daniels Midland Co","","39.870074","-88.890756","Decatur","Macon","Illinois","62526","4666 Faries Parkway","335","0","Coal","","335","0","0","0","0","0","0","0","0","0","0","0","EIA-860, EIA-860M and EIA-923","201705"
"United States","Arkansas Nuclear One","Entergy Arkansas Inc","","35.311","-93.2351","Russellville","Pope","Arkansas","72801","1448 STATE RD 333","1845","0","Nuclear","","0","0","0","0","0","0","1845","0","0","0","0","0","EIA-860, EIA-860M and EIA-923","201705"
"United States","Arlington Valley Energy Facility","Arlington Valley LLC","","33.3417","-112.8897","Arlington","Maricopa","Arizona","85322","39027 W Elliot Road","713","0","Natural Gas","","0","713","0","0","0","0","0","0","0","0","0","0","EIA-860, EIA-860M and EIA-923","201705"
"United States","Arlington Valley Solar Energy II","Arlington Valley Solar Energy II LLC","","33.305","-112.833888","Arlington","Maricopa","Arizona","85326","South of Elliot Road and west","129","129","Solar","Solar","0","0","0","0","0","0","0","129","0","0","0","0","EIA-860, EIA-860M and EIA-923","201705"
"United States","Arlington Wind Power Project","Arlington Wind Power Project LLC","","45.7167","-120.2008","Arlington","Gilliam","Oregon","97812","72650 Rattlesnake Road","103","103","Wind","Wind","0","0","0","0","0","0","0","0","103","0","0","0","EIA-860, EIA-860M and EIA-923","201705"
"United States","Armenia Mountain Wind Farm","Allete Clean Energy","","41.7619","-76.8553","Mainesburg","Tioga","Pennsylvania","16932","2806 Mountain Ridge Road","100.5","100.5","Wind","Wind","0","0","0","0","0","0","0","0","100.5","0","0","0","EIA-860, EIA-860M and EIA-923","201705"
"United States","Armstrong","IPA Operations Inc - Armstrong","","40.638021","-79.351725","Shelocta","Armstrong","Pennsylvania","15774","2313 State Route 156","688","0","Natural Gas","","0","688","0","0","0","0","0","0","0","0","0","0","EIA-860, EIA-860M and EIA-923","201705"
"United States","Arsenal Hill","Southwestern Electric Power Co","","32.5181","-93.7611","Shreveport","Caddo","Louisiana","71101","520 North Allen","125","0","Natural Gas","","0","125","0","0","0","0","0","0","0","0","0","0","EIA-860, EIA-860M and EIA-923","201705"
"United States","Arthur Kill Generating Station","NRG Arthur Kill Operations Inc","","40.591564","-74.200035","Staten Island","Richmond","New York","10314","4401 Victory Blvd","895.5","0","Natural Gas","","0","895.5","0","0","0","0","0","0","0","0","0","0","EIA-860, EIA-860M and EIA-923","201705"
"United States","Arthur Von Rosenberg","City of San Antonio - (TX)","","29.257046","-98.384045","Elmendorf","Bexar","Texas","78112","15290 Streich Rd.","550","0","Natural Gas","","0","550","0","0","0","0","0","0","0","0","0","0","EIA-860, EIA-860M and EIA-923","201705"
"United States","Arvah B Hopkins","City of Tallahassee - (FL)","","30.4522","-84.4","Tallahassee","Leon","Florida","32304","1125 Geddie Road","653.1","0","Natural Gas","","0","653.1","0","0","0","0","0","0","0","0","0","0","EIA-860, EIA-860M and EIA-923","201705"
"United States","Asbury","Empire District Electric Co","","37.361315","-94.58926","Asbury","Jasper","Missouri","64832","21133 Uphill Lane","212.8","0","Coal","","212.8","0","0","0","0","0","0","0","0","0","0","0","EIA-860, EIA-860M and EIA-923","201705"
"United States","Ashdown","Domtar Industries Inc","","33.6417","-94.1083","Ashdown","Little River","Arkansas","71822","285 Hwy. 71 South","156.5","156.5","Biomass","Biomass","0","0","0","0","0","0","0","0","0","0","156.5","0","EIA-860, EIA-860M and EIA-923","201705"
"United States","Asheville","Duke Energy Progress - (NC)","","35.4731","-82.5417","Arden","Buncombe","North Carolina","28704","200 CP&L Drive","837.1","0","Natural Gas","","413.6","423.5","0","0","0","0","0","0","0","0","0","0","EIA-860, EIA-860M and EIA-923","201705"
"United States","Ashtabula Wind II LLC","Ashtabula Wind II LLC","","47.292437","-97.931692","Luverne","Steele","North Dakota","58056","12306 20th Street NE","120","120","Wind","Wind","0","0","0","0","0","0","0","0","120","0","0","0","EIA-860, EIA-860M and EIA-923","201705"
"United States","Astoria Energy","Astoria Energy LLC","","40.7825","-73.8964","New York","Queens","New York","11105","17-10 Steinway Street","595","0","Natural Gas","","0","595","0","0","0","0","0","0","0","0","0","0","EIA-860, EIA-860M and EIA-923","201705"
"United States","Astoria Energy II","Astoria Energy II LLC","","40.781321","-73.896618","Astoria","Queens","New York","11105","17-10 Steinway Street","650","0","Natural Gas","","0","650","0","0","0","0","0","0","0","0","0","0","EIA-860, EIA-860M and EIA-923","201705"
"United States","Astoria Gas Turbines","NRG Astoria Gas Turbine Operations Inc","","40.787","-73.9048","Astoria","Queens","New York","11105","31-01 20th Avenue","646.9","0","Natural Gas","","0","502.8","144.1","0","0","0","0","0","0","0","0","0","EIA-860, EIA-860M and EIA-923","201705"
"United States","Astoria Generating Station","U S Power Generating Company LLC","","40.787674","-73.912561","Astoria","Queens","New York","11105","18-01 20th Avenue","1345","0","Natural Gas","","0","1345","0","0","0","0","0","0","0","0","0","0","EIA-860, EIA-860M and EIA-923","201705"
"United States","Astra Wind Farm","Astra Wind LLC","","34.769544","-102.052422","Happy","Randall","Texas","79042","41801 FM 168","163","163","Wind","Wind","0","0","0","0","0","0","0","0","163","0","0","0","EIA-860, EIA-860M and EIA-923","201705"
"United States","Athens Generating Plant","New Athens Generating Company LLC","","42.2728","-73.8492","Athens","Greene","New York","12015","9300 U S Highway 9W","1323","0","Natural Gas","","0","1323","0","0","0","0","0","0","0","0","0","0","EIA-860, EIA-860M and EIA-923","201705"
"United States","Attala","Entergy Mississippi Inc","","33.0147","-89.6753","Sallis","Attala","Mississippi","39160","2261Attala Road 4969","551.3","0","Natural Gas","","0","551.3","0","0","0","0","0","0","0","0","0","0","EIA-860, EIA-860M and EIA-923","201705"
"United States","Auburndale Peaker Energy Center","Auburndale Peaker Energy Center LLC","","28.0535","-81.8059","Auburndale","Polk","Florida","33823","1651 West Derby Avenue","130.1","0","Natural Gas","","0","130.1","0","0","0","0","0","0","0","0","0","0","EIA-860, EIA-860M and EIA-923","201705"
"United States","Audrain Generating Station","Union Electric Co - (MO)","","39.3092","-91.5369","Vandalia","Audrain","Missouri","63382","40897 Highway P","814.4","0","Natural Gas","","0","814.4","0","0","0","0","0","0","0","0","0","0","EIA-860, EIA-860M and EIA-923","201705"
"United States","Aurora","Aurora Generation LLC","","41.8151","-88.2265","Aurora","DuPage","Illinois","60504","2909 North Eola Road","1275","0","Natural Gas","","0","1275","0","0","0","0","0","0","0","0","0","0","EIA-860, EIA-860M and EIA-923","201705"
"United States","AV Solar Ranch One","AV Solar Ranch 1 LLC","","34.780278","-118.42444","Lancaster","Los Angeles","California","93536","49881 West 170 St.","253","253","Solar","Solar","0","0","0","0","0","0","0","253","0","0","0","0","EIA-860, EIA-860M and EIA-923","201705"
"United States","Avon Lake","NRG Power Midwest LP","","41.504453","-82.054619","Avon Lake","Lorain","Ohio","44012","33570 Lake Road","709","0","Coal","","680","0","29","0","0","0","0","0","0","0","0","0","EIA-860, EIA-860M and EIA-923","201705"
"United States","Axiall Natrium Plant","Westlake Chemical Natrium Plant","","39.7475","-80.8547","New Martinsville","Marshall","West Virginia","26155","PO Box 191","123","0","Natural Gas","","0","123","0","0","0","0","0","0","0","0","0","0","EIA-860, EIA-860M and EIA-923","201705"
"United States","Axiall Plaquemine","Axiall Corp","","30.2586","-91.185","Plaquemine","Iberville","Louisiana","70764","26100 Hwy 405","306","0","Natural Gas","","0","306","0","0","0","0","0","0","0","0","0","0","EIA-860, EIA-860M and EIA-923","201705"
"United States","B L England","RC Cape May Holdings LLC","","39.2908","-74.6364","Beesley's Point","Cape May","New Jersey","8223","900 North Shore Road","339.6","0","Petroleum","","163.2","0","176.4","0","0","0","0","0","0","0","0","0","EIA-860, EIA-860M and EIA-923","201705"
"United States","Baconton Power Plant","Baconton Power LLC","","31.3869","-84.08","Baconton","Mitchell","Georgia","31716","2237 Hatcher Hill Rd","242","0","Natural Gas","","0","242","0","0","0","0","0","0","0","0","0","0","EIA-860, EIA-860M and EIA-923","201705"
"United States","Bad Creek","Duke Energy Carolinas, LLC","","35.0075","-82.9975","Salem","Oconee","South Carolina","29676","HC-76 Box 170, Hwy 130 N","1296","1296","Pumped Storage","Pumped Storage","0","0","0","0","0","1296","0","0","0","0","0","0","EIA-860, EIA-860M and EIA-923","201705"
"United States","Baffin Wind","Avangrid Renewables LLC","","27.223056","-97.789167","Sarita","Kenedy","Texas","78385","123 Baffin Road","188","188","Wind","Wind","0","0","0","0","0","0","0","0","188","0","0","0","EIA-860, EIA-860M and EIA-923","201705"
"United States","Bailly","Northern Indiana Pub Serv Co","","41.645","-87.1225","Chesterton","Porter","Indiana","46304","246 Bailly Station Road","641","0","Coal","","603.5","37.5","0","0","0","0","0","0","0","0","0","0","EIA-860, EIA-860M and EIA-923","201705"
"United States","Baldwin Energy Complex","Dynegy Midwest Generation Inc","","38.205","-89.8544","Baldwin","Randolph","Illinois","62217","10901 Baldwin Rd Box146","1894.1","0","Coal","","1894.1","0","0","0","0","0","0","0","0","0","0","0","EIA-860, EIA-860M and EIA-923","201705"
"United States","Baldwin Wind LLC","Baldwin Wind LLC","","47.1133","-100.7086","Wilton","Burleigh","North Dakota","58579","5120 279th Ave NE","102.4","102.4","Wind","Wind","0","0","0","0","0","0","0","0","102.4","0","0","0","EIA-860, EIA-860M and EIA-923","201705"
"United States","Balko Wind LLC","Balko Wind LLC","","36.518056","-100.847222","Balko","Beaver","Oklahoma","73931","","299.7","299.7","Wind","Wind","0","0","0","0","0","0","0","0","299.7","0","0","0","EIA-860, EIA-860M and EIA-923","201705"
"United States","Barkley","USCE-Nashville District","","37.0217","-88.2211","Kuttawa","Lyon","Kentucky","42055","8439 US Highway 62W","130","130","Hydroelectric","Hydroelectric","0","0","0","0","130","0","0","0","0","0","0","0","EIA-860, EIA-860M and EIA-923","201705"
"United States","Barney M Davis","Topaz Power Group  LLC","","27.6064","-97.3117","Corpus Christi","Nueces","Texas","78418","4301 Waldron Rd","1082.2","0","Natural Gas","","0","1082.2","0","0","0","0","0","0","0","0","0","0","EIA-860, EIA-860M and EIA-923","201705"
"United States","Barry","Alabama Power Co","","31.0069","-88.0103","Bucks","Mobile","Alabama","36512","North Highway 43","2569.5","0","Natural Gas","","1192.5","1377","0","0","0","0","0","0","0","0","0","0","EIA-860, EIA-860M and EIA-923","201705"
"United States","Bartletts Ferry","Georgia Power Co","","32.661976","-85.091552","Salem","Lee","Alabama","36874","61 Lee Road 335","173","173","Hydroelectric","Hydroelectric","0","0","0","0","173","0","0","0","0","0","0","0","EIA-860, EIA-860M and EIA-923","201705"
"United States","Barton Chapel Wind Farm","Avangrid Renewables LLC","","33.06797","-98.337652","Jacksboro","Jack","Texas","76458","6868 Rock Creek Rd","120","120","Wind","Wind","0","0","0","0","0","0","0","0","120","0","0","0","EIA-860, EIA-860M and EIA-923","201705"
"United States","Barton Windpower LLC","Avangrid Renewables LLC","","43.393","-93.091","Kensett","Worth","Iowa","50448","1143 410th Street","160","160","Wind","Wind","0","0","0","0","0","0","0","0","160","0","0","0","EIA-860, EIA-860M and EIA-923","201705"
"United States","Bastrop Energy Center","Bastrop Energy Partners, LP","","30.1458","-97.55","Cedar Creek","Bastrop","Texas","78602","125 Old Bastrop Road","618.7","0","Natural Gas","","0","618.7","0","0","0","0","0","0","0","0","0","0","EIA-860, EIA-860M and EIA-923","201705"
"United States","Batesville Generation Facility","Cooperative Energy","","34.3356","-89.9275","Batesville","Panola","Mississippi","38606","200 Industrial Drive","891","0","Natural Gas","","0","891","0","0","0","0","0","0","0","0","0","0","EIA-860, EIA-860M and EIA-923","201705"
"United States","Bath County","Virginia Electric & Power Co","","38.20889","-79.8","Warm Springs","Bath","Virginia","24484","316 Power Station Road","2862","2862","Pumped Storage","Pumped Storage","0","0","0","0","0","2862","0","0","0","0","0","0","EIA-860, EIA-860M and EIA-923","201705"
"United States","Baxter Wilson","Entergy Mississippi Inc","","32.2831","-90.9306","Vicksburg","Warren","Mississippi","39180","770 Kemp Bottom Road","1327.6","0","Natural Gas","","0","1327.6","0","0","0","0","0","0","0","0","0","0","EIA-860, EIA-860M and EIA-923","201705"
"United States","Bayboro","Duke Energy Florida, LLC","","27.758056","-82.635278","St. Petersburg","Pinellas","Florida","33701","263 13th Avenue South","226.8","0","Petroleum","","0","0","226.8","0","0","0","0","0","0","0","0","0","EIA-860, EIA-860M and EIA-923","201705"
"United States","Bayonne Energy Center","Bayonne Energy Center LLC","","40.652834","-74.09155","Bayonne","Hudson","New Jersey","7002","401 Hook Rd","512","0","Natural Gas","","0","512","0","0","0","0","0","0","0","0","0","0","EIA-860, EIA-860M and EIA-923","201705"
"United States","Bayonne Plant Holding LLC","Morris Energy Operations Company, LLC","","40.655325","-74.112442","Bayonne","Hudson","New Jersey","7002","10 Hook Road","191.6","0","Natural Gas","","0","191.6","0","0","0","0","0","0","0","0","0","0","EIA-860, EIA-860M and EIA-923","201705"
"United States","Bayou Cogen Plant","Air Liquide Large Industries U S LP","","29.6225","-95.0458","Pasadena","Harris","Texas","77507","11777 Bay Area Blvd","313.8","0","Natural Gas","","0","313.8","0","0","0","0","0","0","0","0","0","0","EIA-860, EIA-860M and EIA-923","201705"
"United States","Bayou Cove Peaking Power","NRG South CentralOperationsInc","","30.2825","-92.5997","Jennings","Acadia","Louisiana","70546","118 Bergeaux Road","416","0","Natural Gas","","0","416","0","0","0","0","0","0","0","0","0","0","EIA-860, EIA-860M and EIA-923","201705"
"United States","Baytown Energy Center","Baytown Energy Center LLC","","29.7731","-94.9019","Baytown","Chambers","Texas","77520","8605 FM 1405","932.9","0","Natural Gas","","0","932.9","0","0","0","0","0","0","0","0","0","0","EIA-860, EIA-860M and EIA-923","201705"
"United States","Bear Garden","Virginia Electric & Power Co","","37.695556","-78.285278","New Canton","Buckingham","Virginia","23123","2608 C. G. Woodson Road","559","0","Natural Gas","","0","559","0","0","0","0","0","0","0","0","0","0","EIA-860, EIA-860M and EIA-923","201705"
"United States","Bear Swamp","Bear Swamp Power Company LLC","","42.6839","-72.9599","Florida","Berkshire","Massachusetts","1247","River Road","600","600","Pumped Storage","Pumped Storage","0","0","0","0","0","600","0","0","0","0","0","0","EIA-860, EIA-860M and EIA-923","201705"
"United States","Beatrice","Nebraska Public Power District","","40.330184","-96.808153","Beatrice","Gage","Nebraska","68310","20261 SW 61st Rd","247.1","0","Natural Gas","","0","247.1","0","0","0","0","0","0","0","0","0","0","EIA-860, EIA-860M and EIA-923","201705"
"United States","Beaver","Portland General Electric Co","","46.172401","-123.17392","Clatskanie","Columbia","Oregon","97016","80997 Kallunki Rd","610.7","0","Natural Gas","","0","610.7","0","0","0","0","0","0","0","0","0","0","EIA-860, EIA-860M and EIA-923","201705"
"United States","Beaver Dam","USCE-Little Rock District","","36.421507","-93.847373","Eureka Springs","Carroll","Arkansas","72631","774 Dam Site River Raod","112","112","Hydroelectric","Hydroelectric","0","0","0","0","112","0","0","0","0","0","0","0","EIA-860, EIA-860M and EIA-923","201705"
"United States","Beaver Valley","FirstEnergy Nuclear Operating Company","","40.6219","-80.4336","Shippingport","Beaver","Pennsylvania","15077","Route 168","1846.8","0","Nuclear","","0","0","0","0","0","0","1846.8","0","0","0","0","0","EIA-860, EIA-860M and EIA-923","201705"
"United States","Beech Ridge Energy LLC","Invenergy Services LLC","","38.0878","-80.4925","Rupert","Greenbrier","West Virginia","25984","128 Coleman Rd.","100.5","100.5","Wind","Wind","0","0","0","0","0","0","0","0","100.5","0","0","0","EIA-860, EIA-860M and EIA-923","201705"
"United States","Belden","Pacific Gas & Electric Co","","40.007445","-121.249438","Belden","Plumas","California","95915","NA","117.9","117.9","Hydroelectric","Hydroelectric","0","0","0","0","117.9","0","0","0","0","0","0","0","EIA-860, EIA-860M and EIA-923","201705"
"United States","Belews Creek","Duke Energy Carolinas, LLC","","36.2811","-80.0603","Belews Creek","Stokes","North Carolina","27052","3195 Pine Hall Road","2491.2","0","Coal","","2491.2","0","0","0","0","0","0","0","0","0","0","0","EIA-860, EIA-860M and EIA-923","201705"
"United States","Belle River","DTE Electric Company","","42.7756","-82.495","China Twp","St Clair","Michigan","48054","4505 King Rd","1664.4","0","Coal","","1395","255.9","13.5","0","0","0","0","0","0","0","0","0","EIA-860, EIA-860M and EIA-923","201705"
"United States","Bellingham Cogeneration Facility","Northeast Energy Associates LP","","42.0925","-71.4833","Bellingham","Norfolk","Massachusetts","2019","92 Depot Street","386.1","0","Natural Gas","","0","386.1","0","0","0","0","0","0","0","0","0","0","EIA-860, EIA-860M and EIA-923","201705"
"United States","Bellmeade Power Station","Virginia Electric & Power Co","","37.4964","-77.4317","Richmond","Richmond City","Virginia","23060","1860 Commerce Road","330","0","Natural Gas","","0","330","0","0","0","0","0","0","0","0","0","0","EIA-860, EIA-860M and EIA-923","201705"
"United States","Beluga","Chugach Electric Assn Inc","","61.1861","-151.0356","Beluga","Kenai Peninsula","Alaska","99682","Beluga Power Plant","312.4","0","Natural Gas","","0","312.4","0","0","0","0","0","0","0","0","0","0","EIA-860, EIA-860M and EIA-923","201705"
"United States","Ben French","Black Hills Power, Inc. d/b/a","","44.087235","-103.260959","Rapid City","Pennington","South Dakota","57702","393 Deadwood Avenue","110","0","Natural Gas","","0","100","10","0","0","0","0","0","0","0","0","0","EIA-860, EIA-860M and EIA-923","201705"
"United States","Bennett Mountain","Idaho Power Co","","43.147153","-115.666637","Mountain Home","Elmore","Idaho","83647","2750 NE Industrial Way","172.8","0","Natural Gas","","0","172.8","0","0","0","0","0","0","0","0","0","0","EIA-860, EIA-860M and EIA-923","201705"
"United States","Bent Tree Wind Farm Phase 1","Wisconsin Power & Light Co","","43.724596","-93.450429","Hartland","Freeborn","Minnesota","56042","31072 State Highway 13","201.3","201.3","Wind","Wind","0","0","0","0","0","0","0","0","201.3","0","0","0","EIA-860, EIA-860M and EIA-923","201705"
"United States","Benton County Wind Farm","Orion Energy Group LLC","","40.695","-87.4886","Earl Park","Benton","Indiana","47942","8557W. 600N","130.5","130.5","Wind","Wind","0","0","0","0","0","0","0","0","130.5","0","0","0","EIA-860, EIA-860M and EIA-923","201705"
"United States","Bergen Generating Station","PSEG Fossil LLC","","40.8375","-74.0244","Ridgefield","Bergen","New Jersey","7657","Victoria Terrace","1400.8","0","Natural Gas","","0","1400.8","0","0","0","0","0","0","0","0","0","0","EIA-860, EIA-860M and EIA-923","201705"
"United States","Berkshire Power","Berkshire Power Co LLC","","42.0476","-72.6478","Agawam","Hampden","Massachusetts","1001","36 Moylan Lane","289","0","Natural Gas","","0","289","0","0","0","0","0","0","0","0","0","0","EIA-860, EIA-860M and EIA-923","201705"
"United States","Bethel Wind Farm LLC","Invenergy Services LLC","","34.575311","-102.474698","Dimmitt","Castro","Texas","79027","657 CR 617","276","276","Wind","Wind","0","0","0","0","0","0","0","0","276","0","0","0","EIA-860, EIA-860M and EIA-923","201705"
"United States","Bethlehem Energy Center","PSEG Power New York Inc","","42.594196","-73.763752","Glenmont","Albany","New York","12077","Route 144 River Road","893.1","0","Natural Gas","","0","893.1","0","0","0","0","0","0","0","0","0","0","EIA-860, EIA-860M and EIA-923","201705"
"United States","Bethlehem Power Plant","Calpine Bethlehem LLC","","40.6175","-75.3147","Bethlehem","Northampton","Pennsylvania","18015","2254 Applebutter Road","1153","0","Natural Gas","","0","1153","0","0","0","0","0","0","0","0","0","0","EIA-860, EIA-860M and EIA-923","201705"
"United States","Bethpage Power Plant","Calpine Eastern Corp","","40.7469","-73.4994","Hicksville","Nassau","New York","11801","939 South Broadway","240","0","Natural Gas","","0","239.6","0.4","0","0","0","0","0","0","0","0","0","EIA-860, EIA-860M and EIA-923","201705"
"United States","Big Bend","Tampa Electric Co","","27.7944","-82.4036","Apollo Beach","Hillsborough","Florida","33572","13031 Wyandotte Road","1903.5","19","Coal","Solar","1822.5","62","0","0","0","0","0","19","0","0","0","0","EIA-860, EIA-860M and EIA-923","201705"
"United States","Big Bend Dam","USCE-Missouri River District","","44.0384","-99.4463","Chamberlain","Buffalo","South Dakota","57325","33573 N. Shore Rd","494.1","494.1","Hydroelectric","Hydroelectric","0","0","0","0","494.1","0","0","0","0","0","0","0","EIA-860, EIA-860M and EIA-923","201705"
"United States","Big Brown","Luminant Generation Company LLC","","31.8206","-96.0544","Fairfield","Freestone","Texas","75840","PO Box 948","1186.8","0","Coal","","1186.8","0","0","0","0","0","0","0","0","0","0","0","EIA-860, EIA-860M and EIA-923","201705"
"United States","Big Cajun 1","Louisiana Generating LLC","","30.6739","-91.3556","Jarreau","Pointe Coupee","Louisiana","70749","7807 River Road - Hwy 415","492.8","0","Natural Gas","","0","492.8","0","0","0","0","0","0","0","0","0","0","EIA-860, EIA-860M and EIA-923","201705"
"United States","Big Cajun 2","Louisiana Generating LLC","","30.7261","-91.3692","New Roads","Pointe Coupee","Louisiana","70760","10431 Cajun 2 Road - Hwy 981","1902.9","0","Coal","","1276.9","626","0","0","0","0","0","0","0","0","0","0","EIA-860, EIA-860M and EIA-923","201705"
"United States","Big Creek 2A","Southern California Edison Co","","37.200062","-119.30681","Auberry","Fresno","California","93605","Sierra National Forest","110","110","Hydroelectric","Hydroelectric","0","0","0","0","110","0","0","0","0","0","0","0","EIA-860, EIA-860M and EIA-923","201705"
"United States","Big Creek 3","Southern California Edison Co","","37.148517","-119.386623","Auberry","Fresno","California","93602","47369 Lower Redinger Road","174.5","174.5","Hydroelectric","Hydroelectric","0","0","0","0","174.5","0","0","0","0","0","0","0","EIA-860, EIA-860M and EIA-923","201705"
"United States","Big Creek 4","Southern California Edison Co","","37.139","-119.4898","North Fork","Madera","California","93643","Sierra National Forest","100","100","Hydroelectric","Hydroelectric","0","0","0","0","100","0","0","0","0","0","0","0","EIA-860, EIA-860M and EIA-923","201705"
"United States","Big Horn Wind Project","Avangrid Renewables LLC","","45.8877","-120.2896","Bickelton","Klickitat","Washington","99322","1 Big Horn Rd","199","199","Wind","Wind","0","0","0","0","0","0","0","0","199","0","0","0","EIA-860, EIA-860M and EIA-923","201705"
"United States","Big Sandy","Kentucky Power Co","","38.1707","-82.6176","Louisa","Lawrence","Kentucky","41230","23000 Hwy 23","280.5","0","Natural Gas","","0","280.5","0","0","0","0","0","0","0","0","0","0","EIA-860, EIA-860M and EIA-923","201705"
"United States","Big Sandy Peaker Plant","Middle River Power II, LLC","","38.3441","-82.5938","Kenona","Wayne","West Virginia","25530","2570 Route 52","353.4","0","Natural Gas","","0","353.4","0","0","0","0","0","0","0","0","0","0","EIA-860, EIA-860M and EIA-923","201705"
"United States","Big Sky Wind LLC","Everpower Wind Holdings Inc","","41.599167","-89.456111","Ohio","Bureau","Illinois","61349","911 Easy Road","240","240","Wind","Wind","0","0","0","0","0","0","0","0","240","0","0","0","EIA-860, EIA-860M and EIA-923","201705"
"United States","Big Stone","Otter Tail Power Co","","45.303652","-96.510067","Big Stone City","Grant","South Dakota","57216","48450  144th Street","457","0","Coal","","456","0","1","0","0","0","0","0","0","0","0","0","EIA-860, EIA-860M and EIA-923","201705"
"United States","Biglow Canyon Wind Farm","Portland General Electric Co","","45.653745","-120.603414","Wasco","Sherman","Oregon","97065","96900 Herin Lane","449.7","449.7","Wind","Wind","0","0","0","0","0","0","0","0","449.7","0","0","0","EIA-860, EIA-860M and EIA-923","201705"
"United States","Bingham Wind","","","45.103333","-69.761944","Bingham","Piscataquis","Maine","4920","Piscataquis and Somerset Coun","186","186","Wind","Wind","0","0","0","0","0","0","0","0","186","0","0","0","EIA-860, EIA-860M and EIA-923","201705"
"United States","Birchwood Power","Birchwood Power Partners LP","","38.2667","-77.3147","King George","King George","Virginia","22485","10900 Birchwood Drive","258.3","0","Coal","","258.3","0","0","0","0","0","0","0","0","0","0","0","EIA-860, EIA-860M and EIA-923","201705"
"United States","Bishop Hill Energy LLC","Invenergy Services LLC","","41.215278","-90.120833","Cambridge","Henry","Illinois","61491","E 1670 (CR39) and N 450","200","200","Wind","Wind","0","0","0","0","0","0","0","0","200","0","0","0","EIA-860, EIA-860M and EIA-923","201705"
"United States","Bison 2 Wind Energy Center","ALLETE, Inc.","","46.98","-101.554722","New Salem","Morton","North Dakota","58563","5198 30th St","105","105","Wind","Wind","0","0","0","0","0","0","0","0","105","0","0","0","EIA-860, EIA-860M and EIA-923","201705"
"United States","Bison 3 Wind Energy Center","ALLETE, Inc.","","46.98","-101.554722","New Salem","Morton","North Dakota","58563","5198 30th St","105","105","Wind","Wind","0","0","0","0","0","0","0","0","105","0","0","0","EIA-860, EIA-860M and EIA-923","201705"
"United States","Bison 4 Wind Energy Center","ALLETE, Inc.","","46.98","-101.554722","New Salem","Morton","North Dakota","58563","5198 30th St.","205","205","Wind","Wind","0","0","0","0","0","0","0","0","205","0","0","0","EIA-860, EIA-860M and EIA-923","201705"
"United States","Black Dog","Northern States Power Co - Minnesota","","44.8108","-93.2501","Burnsville","Dakota","Minnesota","55101","1400 Black Dog Road","324.8","0","Natural Gas","","0","324.8","0","0","0","0","0","0","0","0","0","0","EIA-860, EIA-860M and EIA-923","201705"
"United States","Black Hawk Station","Borger Energy Associates LP","","35.6957","-101.36","Borger","Hutchinson","Texas","79007","Spur 119 N. Cogen Place","243.9","0","Natural Gas","","0","243.9","0","0","0","0","0","0","0","0","0","0","EIA-860, EIA-860M and EIA-923","201705"
"United States","Black Mountain Generating Station","UNS Electric, Inc","","35.0361","-114.1594","Golden Valley","Mohave","Arizona","86413","6625 South Yuma Road","121","0","Natural Gas","","0","121","0","0","0","0","0","0","0","0","0","0","EIA-860, EIA-860M and EIA-923","201705"
"United States","Blackstone Wind Farm II LLC","Blackstone Wind Farm II LLC","","41.1406","-88.53","Dwight","Livingston","Illinois","60420","111 Watters Dr","200","200","Wind","Wind","0","0","0","0","0","0","0","0","200","0","0","0","EIA-860, EIA-860M and EIA-923","201705"
"United States","Blackstone Wind Farm LLC","Blackstone Wind Farm LLC","","41.1508","-88.6233","Ransom","Livingston","Illinois","60420","111 Watters Dr","102","102","Wind","Wind","0","0","0","0","0","0","0","0","102","0","0","0","EIA-860, EIA-860M and EIA-923","201705"
"United States","Blenheim Gilboa","New York Power Authority","","42.4423","-74.4479","Gilboa","Schoharie","New York","12076","397 Power Plant Access Rd","1000","1000","Pumped Storage","Pumped Storage","0","0","0","0","0","1000","0","0","0","0","0","0","EIA-860, EIA-860M and EIA-923","201705"
"United States","Blount Street","Madison Gas & Electric Co","","43.0789","-89.3744","Madison","Dane","Wisconsin","53703","717 E. Main Street","100","0","Natural Gas","","0","100","0","0","0","0","0","0","0","0","0","0","EIA-860, EIA-860M and EIA-923","201705"
"United States","Blue Canyon Windpower II","Blue Canyon Windpower II LLC","","34.8661","-98.6056","Carnegie","Comanche","Oklahoma","73015","3109 State Hwy 19","151","151","Wind","Wind","0","0","0","0","0","0","0","0","151","0","0","0","EIA-860, EIA-860M and EIA-923","201705"
"United States","Blue Canyon Windpower VI LLC","Blue Canyon Windpower VI LLC","","34.910361","-98.5599","Carnegie","Caddo","Oklahoma","73015","3109 State Hwy 19","100","100","Wind","Wind","0","0","0","0","0","0","0","0","100","0","0","0","EIA-860, EIA-860M and EIA-923","201705"
"United States","Blue Creek Wind Project","Avangrid Renewables LLC","","40.931515","-84.561824","Paulding","Van Wert","Ohio","45616","10900 Road 24","302","302","Wind","Wind","0","0","0","0","0","0","0","0","302","0","0","0","EIA-860, EIA-860M and EIA-923","201705"
"United States","Blue Lake","Northern States Power Co - Minnesota","","44.7855","-93.4315","Shakopee","Scott","Minnesota","55379","1200 70th St","559.4","0","Natural Gas","","0","332.6","226.8","0","0","0","0","0","0","0","0","0","EIA-860, EIA-860M and EIA-923","201705"
"United States","Blue Sky Green Field Wind Project","Wisconsin Electric Power Co","","43.8794","-88.2708","Fond du Lac","Fond Du Lac","Wisconsin","54935","Highway W and Johnsburg Road","145.2","145.2","Wind","Wind","0","0","0","0","0","0","0","0","145.2","0","0","0","EIA-860, EIA-860M and EIA-923","201705"
"United States","Blue Spruce Energy Center","Public Service Co of Colorado","","39.747875","-104.681404","Aurora","Adams","Colorado","80019","1751 N  Powhaton Rd","397.8","0","Natural Gas","","0","397.8","0","0","0","0","0","0","0","0","0","0","EIA-860, EIA-860M and EIA-923","201705"
"United States","Blue Summit Wind LLC","Blue Summit Wind LLC","","34.29","-99.364722","Vernon","Wilbarger","Texas","76384","17301 CR 97N","135.4","135.4","Wind","Wind","0","0","0","0","0","0","0","0","135.4","0","0","0","EIA-860, EIA-860M and EIA-923","201705"
"United States","Blue Valley","City of Independence - (MO)","","39.0919","-94.3261","Independence","Jackson","Missouri","64056","21500 E. Truman Rd.","115","0","Natural Gas","","0","115","0","0","0","0","0","0","0","0","0","0","EIA-860, EIA-860M and EIA-923","201705"
"United States","Bluegrass Generating Station","East Kentucky Power Coop, Inc","","38.3902","-85.4133","LaGrange","Oldham","Kentucky","40031","3095 Commerce Pkwy","624","0","Natural Gas","","0","624","0","0","0","0","0","0","0","0","0","0","EIA-860, EIA-860M and EIA-923","201705"
"United States","Bluestem","Bluestem Wind Energy, LLC","","36.552151","-100.587557","Beaver","Beaver","Oklahoma","73932","13550 E 310 Road","198","198","Wind","Wind","0","0","0","0","0","0","0","0","198","0","0","0","EIA-860, EIA-860M and EIA-923","201705"
"United States","Blythe Energy Inc","AltaGas Blythe Operations Inc","","33.6157","-114.6865","Blythe","Riverside","California","92225","385 N Buck Blvd.","591","0","Natural Gas","","0","591","0","0","0","0","0","0","0","0","0","0","EIA-860, EIA-860M and EIA-923","201705"
"United States","Blythe Solar 110, LLC","Blythe Solar 110, LLC","","33.68","-114.742","Blythe","Riverside","California","92225","4000 Dracker Drive","109.8","109.8","Solar","Solar","0","0","0","0","0","0","0","109.8","0","0","0","0","EIA-860, EIA-860M and EIA-923","201705"
"United States","Blythe Solar II, LLC","Blythe Solar II, LLC","","33.68","-114.73","Blythe","Riverside","California","92225","4000 Dracker Drive","131.2","131.2","Solar","Solar","0","0","0","0","0","0","0","131.2","0","0","0","0","EIA-860, EIA-860M and EIA-923","201705"
"United States","Boardman","Portland General Electric Co","","45.693182","-119.808819","Boardman","Morrow","Oregon","97818","73334 Tower Rd","642.2","0","Coal","","642.2","0","0","0","0","0","0","0","0","0","0","0","EIA-860, EIA-860M and EIA-923","201705"
"United States","Bobcat Bluff Wind Project LLC","EDF Renewable Asset Holdings, Inc.","","33.493056","-98.581944","Archer","Archer","Texas","76351","1354 Cowan Rd","150","150","Wind","Wind","0","0","0","0","0","0","0","0","150","0","0","0","EIA-860, EIA-860M and EIA-923","201705"
"United States","Bonanza","Deseret Generation & Tran Coop","","40.0864","-109.2844","Vernal","Uintah","Utah","84078","12500 East 25500 South","499.5","0","Coal","","499.5","0","0","0","0","0","0","0","0","0","0","0","EIA-860, EIA-860M and EIA-923","201705"
"United States","Bonneville","USACE Northwestern Division","","45.6441","-121.941009","Cascade Locks","Multnomah","Oregon","97014","ATTN: Project Office","1162","1162","Hydroelectric","Hydroelectric","0","0","0","0","1162","0","0","0","0","0","0","0","EIA-860, EIA-860M and EIA-923","201705"
"United States","Boone Dam","Tennessee Valley Authority","","36.4403","-82.4381","Kingsport","Sullivan","Tennessee","37663","301 Boone Dam Rd","105.9","105.9","Hydroelectric","Hydroelectric","0","0","0","0","105.9","0","0","0","0","0","0","0","EIA-860, EIA-860M and EIA-923","201705"
"United States","Border Winds Wind Farm","Northern States Power Co - Minnesota","","48.964722","-99.613889","Rolla","Rolette","North Dakota","58367","10707 52nd Ave NE","150","150","Wind","Wind","0","0","0","0","0","0","0","0","150","0","0","0","EIA-860, EIA-860M and EIA-923","201705"
"United States","Bosque County Peaking","Calpine Bosque Energy Center LLC","","31.8594","-97.3586","Laquna Park","Bosque","Texas","76644","PO Box 5436","807","0","Natural Gas","","0","807","0","0","0","0","0","0","0","0","0","0","EIA-860, EIA-860M and EIA-923","201705"
"United States","Boulder Solar Power, LLC","Southern Power Co","","35.348","-114.97","Boulder City","Clark","Nevada","89005","17445 South US HWY 95","100","100","Solar","Solar","0","0","0","0","0","0","0","100","0","0","0","0","EIA-860, EIA-860M and EIA-923","201705"
"United States","Boundary","City of Seattle - (WA)","","48.987111","-117.347847","Metaline Falls","Pend Oreille","Washington","99153","P.O. Box 219","1118.6","1118.6","Hydroelectric","Hydroelectric","0","0","0","0","1118.6","0","0","0","0","0","0","0","EIA-860, EIA-860M and EIA-923","201705"
"United States","Bowen","Georgia Power Co","","34.1256","-84.9222","Cartersville","Bartow","Georgia","30120","317 Covered Bridge Road, SW","3498.6","0","Coal","","3498.6","0","0","0","0","0","0","0","0","0","0","0","EIA-860, EIA-860M and EIA-923","201705"
"United States","Bowline Point","NRG New York LLC","","41.2044","-73.9689","West Haverstraw","Rockland","New York","10993","140 Samsondale Ave.","1242","0","Natural Gas","","0","1242","0","0","0","0","0","0","0","0","0","0","EIA-860, EIA-860M and EIA-923","201705"
"United States","Bradley Lake","Homer Electric Assn Inc","","59.77862","-150.94015","Homer","Kenai Peninsula","Alaska","99603","Bradley Lake","126","126","Hydroelectric","Hydroelectric","0","0","0","0","126","0","0","0","0","0","0","0","EIA-860, EIA-860M and EIA-923","201705"
"United States","Brady II Wind Energy Center","Brady Wind II, LLC","","46.611515","-102.78821","Dickinson","Stark","North Dakota","58601","5206 109th AVE SW","150","150","Wind","Wind","0","0","0","0","0","0","0","0","150","0","0","0","EIA-860, EIA-860M and EIA-923","201705"
"United States","Brady Wind Energy Center","Brady Wind, LLC","","46.646471","-102.765089","Dickinson","Stark","North Dakota","58601","5206 109th Ave SW","150","150","Wind","Wind","0","0","0","0","0","0","0","0","150","0","0","0","EIA-860, EIA-860M and EIA-923","201705"
"United States","Braidwood Generation Station","Exelon Nuclear","","41.2435","-88.2286","Braceville","Will","Illinois","60407","RR #1 Box 84","2449.8","0","Nuclear","","0","0","0","0","0","0","2449.8","0","0","0","0","0","EIA-860, EIA-860M and EIA-923","201705"
"United States","Brame Energy Center","Cleco Power LLC","","31.395","-92.716667","Lena","Rapides","Louisiana","71447","275 Rodemacher Rd","1707.3","0","Petroleum","","558","445.5","703.8","0","0","0","0","0","0","0","0","0","EIA-860, EIA-860M and EIA-923","201705"
"United States","Brandon Shores","Brandon Shores LLC","","39.18","-76.5389","Baltimore","Anne Arundel","Maryland","21226","1000 Brandon Shores Rd","1370","0","Coal","","1370","0","0","0","0","0","0","0","0","0","0","0","EIA-860, EIA-860M and EIA-923","201705"
"United States","Brandy Branch","JEA","","30.320556","-81.947222","Baldwin","Duval","Florida","32234","15701 W. Beaver St.","783.1","0","Natural Gas","","0","783.1","0","0","0","0","0","0","0","0","0","0","EIA-860, EIA-860M and EIA-923","201705"
"United States","Brandywine Power Facility","KMC Thermo, LLC","","38.6681","-76.8678","Brandywine","Prince Georges","Maryland","20613","16400 Mattawoman Drive","288.8","0","Natural Gas","","0","288.8","0","0","0","0","0","0","0","0","0","0","EIA-860, EIA-860M and EIA-923","201705"
"United States","Brayton Point","Brayton Point Energy LLC","","41.7103","-71.1931","Somerset","Bristol","Massachusetts","2726","Brayton Point Road","1600.1","0","Coal","","1124.6","0","475.5","0","0","0","0","0","0","0","0","0","EIA-860, EIA-860M and EIA-923","201705"
"United States","Brazos Valley Generating Facility","Brazos Valley Energy","","29.4731","-95.6244","Thompsons","Fort Bend","Texas","77481","3440 Lockwood Rd.","675.6","0","Natural Gas","","0","675.6","0","0","0","0","0","0","0","0","0","0","EIA-860, EIA-860M and EIA-923","201705"
"United States","Brazos Wind Farm","Shell Wind Energy Inc.","","32.94793","-101.147784","Fluvanna","Scurry","Texas","79517","968 Main Street","160","160","Wind","Wind","0","0","0","0","0","0","0","0","160","0","0","0","EIA-860, EIA-860M and EIA-923","201705"
"United States","Bremo Bluff","Virginia Electric & Power Co","","37.7089","-78.2878","Bremo Bluff","Fluvanna","Virginia","23022","1038 Bremo Road","254.2","0","Natural Gas","","0","254.2","0","0","0","0","0","0","0","0","0","0","EIA-860, EIA-860M and EIA-923","201705"
"United States","Bridgeport Energy Project","Bridgeport Energy LLC","","41.1692","-73.1844","Bridgeport","Fairfield","Connecticut","6604","10 Atlantic Street","520","0","Natural Gas","","0","520","0","0","0","0","0","0","0","0","0","0","EIA-860, EIA-860M and EIA-923","201705"
"United States","Bridgeport Station","PSEG Power Connecticut LLC","","41.1706","-73.1844","Bridgeport","Fairfield","Connecticut","6604","1 Atlantic Street","418.6","0","Coal","","400","0","18.6","0","0","0","0","0","0","0","0","0","EIA-860, EIA-860M and EIA-923","201705"
"United States","Briscoe Wind Farm","Capital Dynamics","","34.432267","-101.237233","Silverton","Briscoe","Texas","79257","9947 County Road F","150","150","Wind","Wind","0","0","0","0","0","0","0","0","150","0","0","0","EIA-860, EIA-860M and EIA-923","201705"
"United States","Broad River Energy Center","Broad River Energy LLC","","35.0786","-81.575","Gaffney","Cherokee","South Carolina","29340","1124 Victory Trail Road","985","0","Natural Gas","","0","985","0","0","0","0","0","0","0","0","0","0","EIA-860, EIA-860M and EIA-923","201705"
"United States","Broadview Energy JN, LLC","Pattern Operators LP","","34.734179","-103.108047","Texico","Curry","New Mexico","88135","498 State Road 19","181.7","181.7","Wind","Wind","0","0","0","0","0","0","0","0","181.7","0","0","0","EIA-860, EIA-860M and EIA-923","201705"
"United States","Broadview Energy KW, LLC","Pattern Operators LP","","34.727007","-103.166771","Texico","Curry","New Mexico","88135","498 State Road 19","142.6","142.6","Wind","Wind","0","0","0","0","0","0","0","0","142.6","0","0","0","EIA-860, EIA-860M and EIA-923","201705"
"United States","Broadway (IN)","Southern Indiana Gas & Elec Co","","37.969116","-87.604879","Evansville","Vanderburgh","Indiana","47712","2600 Broadway Ave","141.9","0","Natural Gas","","0","141.9","0","0","0","0","0","0","0","0","0","0","EIA-860, EIA-860M and EIA-923","201705"
"United States","Broken Bow Dam","USCE-Tulsa District","","34.138779","-94.684498","Broken Bow","McCurtain","Oklahoma","74728","PO Box 730","100","100","Hydroelectric","Hydroelectric","0","0","0","0","100","0","0","0","0","0","0","0","EIA-860, EIA-860M and EIA-923","201705"
"United States","Brookfield Tehachapi 1","Consolidated Edison Development Inc.","","35.008333","-118.241389","Mojave","Kern","California","93501","15509 70th St.","102","102","Wind","Wind","0","0","0","0","0","0","0","0","102","0","0","0","EIA-860, EIA-860M and EIA-923","201705"
"United States","Brooklyn Navy Yard Cogeneration","Brooklyn Navy Yard Cogen PLP","","40.699357","-73.976392","Brooklyn","Kings","New York","11205","63 Flushing Ave., Building 41","322","0","Natural Gas","","0","322","0","0","0","0","0","0","0","0","0","0","EIA-860, EIA-860M and EIA-923","201705"
"United States","Brownlee","Idaho Power Co","","44.8367","-116.8975","Cambridge","Washington","Idaho","83610","ID Highway #71 @ the Snake R.","585.4","585.4","Hydroelectric","Hydroelectric","0","0","0","0","585.4","0","0","0","0","0","0","0","EIA-860, EIA-860M and EIA-923","201705"
"United States","Browns Ferry","Tennessee Valley Authority","","34.7042","-87.1189","Decatur","Limestone","Alabama","35609","Shaw Rd. PO Box 2000","3494","0","Nuclear","","0","0","0","0","0","0","3494","0","0","0","0","0","EIA-860, EIA-860M and EIA-923","201705"
"United States","Brownsville Peaking Power","Tennessee Valley Authority","","35.5438","-89.198","Brownsville","Haywood","Tennessee","38012","948 Beechgrove Rd","460","0","Natural Gas","","0","460","0","0","0","0","0","0","0","0","0","0","EIA-860, EIA-860M and EIA-923","201705"
"United States","Brunner Island","Brunner Island LLC","","40.096111","-76.6962","York Haven","York","Pennsylvania","17370","P.O. Box 221","1624.2","0","Natural Gas","","363.3","1252.8","8.1","0","0","0","0","0","0","0","0","0","EIA-860, EIA-860M and EIA-923","201705"
"United States","Brunot Island","NRG Power Midwest LP","","40.464851","-80.043761","Pittsburg","Allegheny","Pennsylvania","15204","2849 West Carson Street","365.4","0","Natural Gas","","0","339.9","25.5","0","0","0","0","0","0","0","0","0","EIA-860, EIA-860M and EIA-923","201705"
"United States","Brunswick County Power Station","Virginia Electric & Power Co","","36.765","-77.713889","Freeman","Brunswick","Virginia","23856","20100 Governor Harrison Parkwa","1472.2","0","Natural Gas","","0","1472.2","0","0","0","0","0","0","0","0","0","0","EIA-860, EIA-860M and EIA-923","201705"
"United States","Brunswick Nuclear","Duke Energy Progress - (NC)","","33.9597","-78.0114","Southport","Brunswick","North Carolina","28461","P. O. Box 10429","2003.2","0","Nuclear","","0","0","0","0","0","0","2003.2","0","0","0","0","0","EIA-860, EIA-860M and EIA-923","201705"
"United States","Brush Generation Facility","Colorado Energy Management","","40.2415","-103.631","Brush","Morgan","Colorado","80723","1500 S Clayton","297.2","0","Natural Gas","","0","297.2","0","0","0","0","0","0","0","0","0","0","EIA-860, EIA-860M and EIA-923","201705"
"United States","Buck","Duke Energy Carolinas, LLC","","35.7133","-80.3767","Salisbury","Rowan","North Carolina","28145","1555 Dukeville Rd","697.9","0","Natural Gas","","0","697.9","0","0","0","0","0","0","0","0","0","0","EIA-860, EIA-860M and EIA-923","201705"
"United States","Buckeye Wind Energy Center","Invenergy Services LLC","","39.003873","-99.414161","Hays","Ellis","Kansas","67601","unknown","205.7","205.7","Wind","Wind","0","0","0","0","0","0","0","0","205.7","0","0","0","EIA-860, EIA-860M and EIA-923","201705"
"United States","Bucksport Generation LLC","Bucksport Generation LLC","","44.5738","-68.8046","Bucksport","Hancock","Maine","4416","River Road","298.4","111.6","Natural Gas","Biomass","0","186.8","0","0","0","0","0","0","0","0","111.6","0","EIA-860, EIA-860M and EIA-923","201705"
"United States","Buffalo Dunes Wind Project","Buffalo Dunes Wind Project LLC","","37.620833","-101.076111","Satanta","Haskell","Kansas","67870","Haskell Co Rd","249.8","249.8","Wind","Wind","0","0","0","0","0","0","0","0","249.8","0","0","0","EIA-860, EIA-860M and EIA-923","201705"
"United States","Buffalo Gap 2 Wind Farm","AES Wind Generation Inc","","32.318221","-100.176986","Merkel","Nolan","Texas","79536","10718 FM 89","232.5","232.5","Wind","Wind","0","0","0","0","0","0","0","0","232.5","0","0","0","EIA-860, EIA-860M and EIA-923","201705"
"United States","Buffalo Gap 3 Wind Farm","AES Wind Generation Inc","","32.2878","-100.1","Nolan","Nolan","Texas","79537","4220-A FM 126","170.2","170.2","Wind","Wind","0","0","0","0","0","0","0","0","170.2","0","0","0","EIA-860, EIA-860M and EIA-923","201705"
"United States","Buffalo Gap Wind Farm","AES Wind Generation Inc","","32.311556","-100.061589","Merkel","Taylor","Texas","79536","10718 FM89","120.6","120.6","Wind","Wind","0","0","0","0","0","0","0","0","120.6","0","0","0","EIA-860, EIA-860M and EIA-923","201705"
"United States","Buffalo Ridge II LLC","Avangrid Renewables LLC","","44.5281","-96.6267","Elkton","Brookings","South Dakota","57026","21006 486th Avenue","210","210","Wind","Wind","0","0","0","0","0","0","0","0","210","0","0","0","EIA-860, EIA-860M and EIA-923","201705"
"United States","Buford","USCE-Mobile District","","34.162279","-84.077367","Buford","Forsyth","Georgia","30518","7000 Powerhouse Road","131.2","131.2","Hydroelectric","Hydroelectric","0","0","0","0","131.2","0","0","0","0","0","0","0","EIA-860, EIA-860M and EIA-923","201705"
"United States","Bull Creek Wind","Bull Creek Wind LLC","","32.929014","-101.578617","O'Donnell","Borden","Texas","79351","1016d County Road","180","180","Wind","Wind","0","0","0","0","0","0","0","0","180","0","0","0","EIA-860, EIA-860M and EIA-923","201705"
"United States","Bull Run","Tennessee Valley Authority","","36.0211","-84.1567","Clinton","Anderson","Tennessee","37716","1265 EDGEMOOR RD.","950","0","Coal","","950","0","0","0","0","0","0","0","0","0","0","0","EIA-860, EIA-860M and EIA-923","201705"
"United States","Bull Shoals","USCE-Little Rock District","","36.3635","-92.5763","MOUNTAIN HOME","Marion","Arkansas","72653","324 W 7TH","340","340","Hydroelectric","Hydroelectric","0","0","0","0","340","0","0","0","0","0","0","0","EIA-860, EIA-860M and EIA-923","201705"
"United States","Burlington (CO)","Tri-State G & T Assn, Inc","","39.3561","-102.2431","Burlington","Kit Carson","Colorado","80807","21889 County Road 50","129.4","0","Petroleum","","0","0","129.4","0","0","0","0","0","0","0","0","0","EIA-860, EIA-860M and EIA-923","201705"
"United States","Burlington (IA)","Interstate Power and Light Co","","40.7412","-91.116667","Burlington","Des Moines","Iowa","52601","4282 Sullivan Slough Road","290.8","0","Coal","","212","78.8","0","0","0","0","0","0","0","0","0","0","EIA-860, EIA-860M and EIA-923","201705"
"United States","Butler Solar Project 103","Southern Power Co","","32.561944","-84.275833","Butler","Taylor","Georgia","31006","765 West Fall Line Freeway","103","103","Solar","Solar","0","0","0","0","0","0","0","103","0","0","0","0","EIA-860, EIA-860M and EIA-923","201705"
"United States","Butler-Warner Generation Plant","Public Works Comm-City of Fayetteville","","35.0986","-78.8294","Fayetteville","Cumberland","North Carolina","28312","2274 Custer Ave","303.4","0","Natural Gas","","0","303.4","0","0","0","0","0","0","0","0","0","0","EIA-860, EIA-860M and EIA-923","201705"
"United States","Byron Generating Station","Exelon Nuclear","","42.0742","-89.2819","Byron","Ogle","Illinois","61010","4450 North German Church Rd","2449.8","0","Nuclear","","0","0","0","0","0","0","2449.8","0","0","0","0","0","EIA-860, EIA-860M and EIA-923","201705"
"United States","C D McIntosh Jr","City of Lakeland - (FL)","","28.0801","-81.9229","Lakeland","Polk","Florida","33801","3030 E. Lake Parker Dr","890.4","0","Natural Gas","","363.8","521.6","5","0","0","0","0","0","0","0","0","0","EIA-860, EIA-860M and EIA-923","201705"
"United States","C R Wing Cogen Plant","Power Resources Ltd","","32.273178","-101.422386","Big Spring","Howard","Texas","79720","500 Refinery Road","230","0","Natural Gas","","0","230","0","0","0","0","0","0","0","0","0","0","EIA-860, EIA-860M and EIA-923","201705"
"United States","C W Burdick","City of Grand Island - (NE)","","40.9228","-98.3269","Grand Island","Hall","Nebraska","68801","805 E Bischeld","240.8","0","Natural Gas","","0","240.8","0","0","0","0","0","0","0","0","0","0","EIA-860, EIA-860M and EIA-923","201705"
"United States","Cabin Creek","Public Service Co of Colorado","","39.6551","-105.7088","Georgetown","Clear Creek","Colorado","80444","5167 Guanella Pass Road","300","300","Pumped Storage","Pumped Storage","0","0","0","0","0","300","0","0","0","0","0","0","EIA-860, EIA-860M and EIA-923","201705"
"United States","Cabinet Gorge","Avista Corp","","48.084444","-116.053056","Clark Fork","Bonner","Idaho","83811","61940 Hwy 200","265.2","265.2","Hydroelectric","Hydroelectric","0","0","0","0","265.2","0","0","0","0","0","0","0","EIA-860, EIA-860M and EIA-923","201705"
"United States","Caithness Long Island Energy Center","Caithness Long Island, LLC","","40.8142","-72.9403","Yaphank","Suffolk","New York","11980","50 Zorn Blvd.","348.9","0","Natural Gas","","0","348.9","0","0","0","0","0","0","0","0","0","0","EIA-860, EIA-860M and EIA-923","201705"
"United States","Calcasieu","Entergy Louisiana LLC","","30.1608","-93.345","Sulphur","Calcasieu","Louisiana","70665","1519 Davison Road","358.8","0","Natural Gas","","0","358.8","0","0","0","0","0","0","0","0","0","0","EIA-860, EIA-860M and EIA-923","201705"
"United States","Calderwood","Brookfield Smoky Mountain Hydropower LLC","","35.4923","-83.9806","Tallassee","Blount","Tennessee","37878","314 Growdon Blvd.","156.6","156.6","Hydroelectric","Hydroelectric","0","0","0","0","156.6","0","0","0","0","0","0","0","EIA-860, EIA-860M and EIA-923","201705"
"United States","Caledonia","Tennessee Valley Authority","","33.6464","-88.2717","Steens","Lowndes","Mississippi","39766","255 Lone Oak Rd.","801","0","Natural Gas","","0","801","0","0","0","0","0","0","0","0","0","0","EIA-860, EIA-860M and EIA-923","201705"
"United States","Calhoun Energy Center","Calhoun Power Co LLC","","33.5883","-85.9731","Eastaboga","Calhoun","Alabama","36260","720 Green Valley Dr","748","0","Natural Gas","","0","748","0","0","0","0","0","0","0","0","0","0","EIA-860, EIA-860M and EIA-923","201705"
"United States","California Ridge Wind Energy LLC","Invenergy Services LLC","","40.211667","-87.878333","Fithian","Vermilion","Illinois","61844","3429 East CR 2350 North Road","217","217","Wind","Wind","0","0","0","0","0","0","0","0","217","0","0","0","EIA-860, EIA-860M and EIA-923","201705"
"United States","California Valley Solar Ranch","NRG Renew Operation & Maintenance, LLC","","35.323739","-119.91663","California Valley","San Luis Obispo","California","93453","13505 Carrisa Highway","249.8","249.8","Solar","Solar","0","0","0","0","0","0","0","249.8","0","0","0","0","EIA-860, EIA-860M and EIA-923","201705"
"United States","Calistoga Power Plant","Geysers Power Co LLC","","38.7879","-122.7434","Middletown","Lake","California","95461","10350 Socrates Mine Road","176.4","176.4","Geothermal","Geothermal","0","0","0","0","0","0","0","0","0","176.4","0","0","EIA-860, EIA-860M and EIA-923","201705"
"United States","Callahan Divide Wind Energy Center","FPL Energy Callahan Wind, LLC","","32.303889","-100.021667","Tusocola","Taylor","Texas","79562","1209 F CR 618","114","114","Wind","Wind","0","0","0","0","0","0","0","0","114","0","0","0","EIA-860, EIA-860M and EIA-923","201705"
"United States","Callaway","Union Electric Co - (MO)","","38.758919","-91.778841","Fulton","Callaway","Missouri","65251","Route CC","1235.8","0","Nuclear","","0","0","0","0","0","0","1235.8","0","0","0","0","0","EIA-860, EIA-860M and EIA-923","201705"
"United States","Calumet Energy Team LLC","IPA Operations Inc - Calumet","","41.6835","-87.5563","Chicago","Cook","Illinois","60617","11653 S Torrance Ave","312.8","0","Natural Gas","","0","312.8","0","0","0","0","0","0","0","0","0","0","EIA-860, EIA-860M and EIA-923","201705"
"United States","Calvert Cliffs Nuclear Power Plant","Exelon Nuclear","","38.4344","-76.4417","Lusby","Calvert","Maryland","20657","1650 Calvert Cliffs Parkway","1828.7","0","Nuclear","","0","0","0","0","0","0","1828.7","0","0","0","0","0","EIA-860, EIA-860M and EIA-923","201705"
"United States","Cambridge CT","Great River Energy","","45.601","-93.2081","Cambridge","Isanti","Minnesota","55008","Highway 65","194.2","0","Natural Gas","","0","169.2","25","0","0","0","0","0","0","0","0","0","EIA-860, EIA-860M and EIA-923","201705"
"United States","Camden Plant Holding LLC","Morris Energy Operations Company, LLC","","39.9175","-75.1192","Camden","Camden","New Jersey","8104","570 Chelton Ave","157","0","Natural Gas","","0","157","0","0","0","0","0","0","0","0","0","0","EIA-860, EIA-860M and EIA-923","201705"
"United States","Cameron Wind 1 LLC","Cameron Wind 1 LLC","","26.195278","-97.466111","Rio Hondo","Cameron","Texas","78583","25005 FM 1847 B","165","165","Wind","Wind","0","0","0","0","0","0","0","0","165","0","0","0","EIA-860, EIA-860M and EIA-923","201705"
"United States","Camino","Sacramento Municipal Util Dist","","38.82881","-120.537089","Camino","El Dorado","California","95726","Highway 50","157.8","157.8","Hydroelectric","Hydroelectric","0","0","0","0","157.8","0","0","0","0","0","0","0","EIA-860, EIA-860M and EIA-923","201705"
"United States","Camp Grove Wind Farm","Orion Energy Group LLC","","41.090583","-89.639811","Wyoming","Stark","Illinois","61491","RR2, Box 55B","150","150","Wind","Wind","0","0","0","0","0","0","0","0","150","0","0","0","EIA-860, EIA-860M and EIA-923","201705"
"United States","Campbell Industrial Park","Hawaiian Electric Co Inc","","21.3025","-158.101667","Kapolei","Honolulu","Hawaii","96707","91-196 Hanua Street","113","113","Biomass","Biomass","0","0","0","0","0","0","0","0","0","0","113","0","EIA-860, EIA-860M and EIA-923","201705"
"United States","Campo Verde Solar","Southern Power Co","","32.753333","-115.726389","Seeley","Imperial","California","92273","2007 W. Diehl Rd","147.4","147.4","Solar","Solar","0","0","0","0","0","0","0","147.4","0","0","0","0","EIA-860, EIA-860M and EIA-923","201705"
"United States","Canaday","Nebraska Public Power District","","40.6942","-99.7011","Lexington","Gosper","Nebraska","68850","74965 Rd 435","108.8","0","Natural Gas","","0","108.8","0","0","0","0","0","0","0","0","0","0","EIA-860, EIA-860M and EIA-923","201705"
"United States","Canadian Hills Wind","Canadian Hills Wind LLC","","35.629722","-98.024722","El Rino","Canadian","Oklahoma","73014","14730 Calumet Road NW","298.5","298.5","Wind","Wind","0","0","0","0","0","0","0","0","298.5","0","0","0","EIA-860, EIA-860M and EIA-923","201705"
"United States","Canal","NRG Canal LLC","","41.7694","-70.5097","Sandwich","Barnstable","Massachusetts","2563","9 Freezer Road","1165","0","Petroleum","","0","0","1165","0","0","0","0","0","0","0","0","0","EIA-860, EIA-860M and EIA-923","201705"
"United States","Cane Island","Kissimmee Utility Authority","","28.2764","-81.533","Intercession City","Osceola","Florida","33848","6075 Old Tampa Highway","735.5","0","Natural Gas","","0","735.5","0","0","0","0","0","0","0","0","0","0","EIA-860, EIA-860M and EIA-923","201705"
"United States","Cane Run","Louisville Gas & Electric Co","","38.1831","-85.8892","Louisville","Jefferson","Kentucky","40216","5252 Cane Run Road","823.3","0","Natural Gas","","0","823.3","0","0","0","0","0","0","0","0","0","0","EIA-860, EIA-860M and EIA-923","201705"
"United States","Caney River Wind Project","Caney River Wind Project","","37.46","-96.42","Howard","Elk","Kansas","67349","1201 RD 7","200","200","Wind","Wind","0","0","0","0","0","0","0","0","200","0","0","0","EIA-860, EIA-860M and EIA-923","201705"
"United States","Cannon Falls Energy Center","Invenergy Services LLC","","44.536688","-92.915528","Cannon Falls","Goodhue","Minnesota","55009","525 North Park Drive","408","0","Natural Gas","","0","408","0","0","0","0","0","0","0","0","0","0","EIA-860, EIA-860M and EIA-923","201705"
"United States","Canyon Power Plant","City of Anaheim - (CA)","","33.858056","-117.861667","Anaheim","Orange","California","92806","3071 East Miraloma Ave.","200","0","Natural Gas","","0","200","0","0","0","0","0","0","0","0","0","0","EIA-860, EIA-860M and EIA-923","201705"
"United States","Cape Canaveral","Florida Power & Light Co","","28.4698","-80.7644","Cocoa","Brevard","Florida","32927","6000 North US Hwy 1","1295","0","Natural Gas","","0","1295","0","0","0","0","0","0","0","0","0","0","EIA-860, EIA-860M and EIA-923","201705"
"United States","Capricorn Ridge Wind LLC","Capricorn Ridge Wind LLC","","31.9261","-100.9281","Sterling City","Sterling","Texas","76951","533 Bird Lane, P.O. Box 129","662.5","662.5","Wind","Wind","0","0","0","0","0","0","0","0","662.5","0","0","0","EIA-860, EIA-860M and EIA-923","201705"
"United States","Cardinal","AEP Generation Resources Inc","","40.2522","-80.6486","Brillant","Jefferson","Ohio","43913","State Route 7","1880.4","0","Coal","","1880.4","0","0","0","0","0","0","0","0","0","0","0","EIA-860, EIA-860M and EIA-923","201705"
"United States","Caribou 2","Pacific Gas & Electric Co","","40.085997","-121.149373","Belden","Plumas","California","95956","1000 Caribou Road","117.9","117.9","Hydroelectric","Hydroelectric","0","0","0","0","117.9","0","0","0","0","0","0","0","EIA-860, EIA-860M and EIA-923","201705"
"United States","Carl Bailey","Arkansas Electric Coop Corp","","35.260102","-91.363426","Augusta","Woodruff","Arkansas","72006","535 Woodruff 816","120","0","Natural Gas","","0","120","0","0","0","0","0","0","0","0","0","0","EIA-860, EIA-860M and EIA-923","201705"
"United States","Carmen Smith","Eugene Water & Electric Board","","44.285977","-122.041352","McKenzie Bridge","Linn","Oregon","97413","59727 McKenzie Highway","114.3","114.3","Hydroelectric","Hydroelectric","0","0","0","0","114.3","0","0","0","0","0","0","0","EIA-860, EIA-860M and EIA-923","201705"
"United States","Carousel Wind Farm LLC","Carousel Wind Farm, LLC","","39.334","-102.173","Burlington","Kit Carson","Colorado","80807","22103 Country Road 54","150","150","Wind","Wind","0","0","0","0","0","0","0","0","150","0","0","0","EIA-860, EIA-860M and EIA-923","201705"
"United States","Carr Street Generating Station","Carr Street Generating Sta LP","","43.06132","-76.08239","East Syracuse","Onondaga","New York","13057","64 Carr Street","122.6","0","Natural Gas","","0","122.6","0","0","0","0","0","0","0","0","0","0","EIA-860, EIA-860M and EIA-923","201705"
"United States","Carroll Wind Farm","MidAmerican Energy Co","","42.1622","-94.93","Carroll","Carroll","Iowa","51401","1832 Industrial Park Road","150","150","Wind","Wind","0","0","0","0","0","0","0","0","150","0","0","0","EIA-860, EIA-860M and EIA-923","201705"
"United States","Carson Ice-Gen Project","Sacramento Municipal Util Dist","","38.445681","-121.462387","Sacramento","Sacramento","California","95758","Franklin Blvd","125.5","0","Natural Gas","","0","125.5","0","0","0","0","0","0","0","0","0","0","EIA-860, EIA-860M and EIA-923","201705"
"United States","Carters","USCE-Mobile District","","34.6121","-84.6733","Chatsworth","Murray","Georgia","30705","975 Powerhouse Road","500","500","Pumped Storage","Hydroelectric","0","0","0","0","250","250","0","0","0","0","0","0","EIA-860, EIA-860M and EIA-923","201705"
"United States","Carty Generating Station","Portland General Electric Co","","45.698611","-119.813056","Boardman","Morrow","Oregon","97818","73396 Tower Road","500","0","Natural Gas","","0","500","0","0","0","0","0","0","0","0","0","0","EIA-860, EIA-860M and EIA-923","201705"
"United States","Carville Energy LLC","Carville Energy LLC","","30.2294","-91.065","St Gabriel","Iberville","Louisiana","70776","4322 LA 30","570","0","Natural Gas","","0","570","0","0","0","0","0","0","0","0","0","0","EIA-860, EIA-860M and EIA-923","201705"
"United States","Cass County","Omaha Public Power District","","40.947913","-95.964026","Plattsmouth","Cass","Nebraska","68507","3520 Mill Road","345","0","Natural Gas","","0","345","0","0","0","0","0","0","0","0","0","0","EIA-860, EIA-860M and EIA-923","201705"
"United States","Castaic","Los Angeles Department of Water & Power","","34.587237","-118.656638","Castaic","Los Angeles","California","91384","37700 Templin Hwy","1682","1682","Pumped Storage","Pumped Storage","0","0","0","0","56","1626","0","0","0","0","0","0","EIA-860, EIA-860M and EIA-923","201705"
"United States","Catalina Solar LLC","EDF Renewable Asset Holdings, Inc.","","34.938261","-118.334492","Rosamond","Kern","California","93560","1232 Catalina rd","110","110","Solar","Solar","0","0","0","0","0","0","0","110","0","0","0","0","EIA-860, EIA-860M and EIA-923","201705"
"United States","Catawba","Duke Energy Carolinas, LLC","","35.0514","-81.0694","York","York","South Carolina","29745","4800 Concord Road","2410.2","0","Nuclear","","0","0","0","0","0","0","2410.2","0","0","0","0","0","EIA-860, EIA-860M and EIA-923","201705"
"United States","Cayuga","Duke Energy Indiana, LLC","","39.9242","-87.4244","Cayuga","Vermillion","Indiana","47928","PO Box 188 SR 63 North","1184.9","0","Coal","","1062","112.5","10.4","0","0","0","0","0","0","0","0","0","EIA-860, EIA-860M and EIA-923","201705"
"United States","Cayuga Operating Company","Cayuga Operating Company, LLC","","42.6028","-76.6336","Lansing","Tompkins","New York","14882","228 Cayuga Dr","322.5","0","Coal","","322.5","0","0","0","0","0","0","0","0","0","0","0","EIA-860, EIA-860M and EIA-923","201705"
"United States","Cedar Bayou","NRG Texas Power LLC","","29.75","-94.9256","Baytown","Chambers","Texas","77523","7705 West Bay Road","1530","0","Natural Gas","","0","1530","0","0","0","0","0","0","0","0","0","0","EIA-860, EIA-860M and EIA-923","201705"
"United States","Cedar Bayou 4","NRG Cedar Bayou Development Company LLC","","29.751645","-94.92312","Eldon","Chambers","Texas","77523","7705 West Bay Road","535.5","0","Natural Gas","","0","535.5","0","0","0","0","0","0","0","0","0","0","EIA-860, EIA-860M and EIA-923","201705"
"United States","Cedar Bluff Wind, LLC","Cedar Bluff Wind, LLC","","38.697606","-99.729289","Brownwell","Ness","Kansas","67521","28193 State Hwy 147","198.6","198.6","Wind","Wind","0","0","0","0","0","0","0","0","198.6","0","0","0","EIA-860, EIA-860M and EIA-923","201705"
"United States","Cedar Creek II","AE Power Services LLC","","40.9475","-103.783889","New Raymer","Weld","Colorado","80742","67125 CR 132","248.3","248.3","Wind","Wind","0","0","0","0","0","0","0","0","248.3","0","0","0","EIA-860, EIA-860M and EIA-923","201705"
"United States","Cedar Creek Wind","Leeward Asset Management, LLC","","40.8944","-104.0206","Grover","Weld","Colorado","80729","59550 CR 105","300.5","300.5","Wind","Wind","0","0","0","0","0","0","0","0","300.5","0","0","0","EIA-860, EIA-860M and EIA-923","201705"
"United States","Cedar Point Wind","Cedar Point LLC","","39.421787","-103.67814","Limon","Lincoln","Colorado","80828","63095 CR 21","252","252","Wind","Wind","0","0","0","0","0","0","0","0","252","0","0","0","EIA-860, EIA-860M and EIA-923","201705"
"United States","Cedro Hill Wind LLC","NRG Energy Gas & Wind Holdings Inc","","27.576111","-98.905278","Bruni","Webb","Texas","78344","7476 FM 2050","150","150","Wind","Wind","0","0","0","0","0","0","0","0","150","0","0","0","EIA-860, EIA-860M and EIA-923","201705"
"United States","Centennial Wind Farm","Oklahoma Gas & Electric Co","","36.637733","-99.601869","Fort Supply","Harper","Oklahoma","73848","NA","120","120","Wind","Wind","0","0","0","0","0","0","0","0","120","0","0","0","EIA-860, EIA-860M and EIA-923","201705"
"United States","Center Hill","USCE-Nashville District","","36.0972","-85.8274","Lancaster","DeKalb","Tennessee","38569","270 Lancaster Road","135","135","Hydroelectric","Hydroelectric","0","0","0","0","135","0","0","0","0","0","0","0","EIA-860, EIA-860M and EIA-923","201705"
"United States","Centinela Solar Energy","Centinela Solar Energy LLC","","32.686944","-115.647778","Calexico","Imperial","California","92231","319 Brockman Road","174.8","174.8","Solar","Solar","0","0","0","0","0","0","0","174.8","0","0","0","0","EIA-860, EIA-860M and EIA-923","201705"
"United States","Century","MidAmerican Energy Co","","42.5644","-93.6369","Blairsburg","Hamilton","Iowa","50034","301 Commercial St","235","235","Wind","Wind","0","0","0","0","0","0","0","0","235","0","0","0","EIA-860, EIA-860M and EIA-923","201705"
"United States","Ceredo Generating Station","Appalachian Power Co","","38.3681","-82.5339","Huntington","Wayne","West Virginia","25704","1662 Walker Branch Road","519","0","Natural Gas","","0","519","0","0","0","0","0","0","0","0","0","0","EIA-860, EIA-860M and EIA-923","201705"
"United States","CFB Power Plant","Formosa Plastics Corp","","28.650278","-96.539722","Point Comfort","Calhoun","Texas","77978","201 Formosa Drive","310","0","Natural Gas","","0","310","0","0","0","0","0","0","0","0","0","0","EIA-860, EIA-860M and EIA-923","201705"
"United States","CH Resources Beaver Falls","Lakeside Beaver Falls LLC","","43.8861","-75.4342","Beaver Falls","Lewis","New York","13305","9644 Main St","107.8","0","Natural Gas","","0","107.8","0","0","0","0","0","0","0","0","0","0","EIA-860, EIA-860M and EIA-923","201705"
"United States","CH Resources Syracuse","Lakeside Syracuse LLC","","43.0664","-76.2144","Solvay","Onondaga","New York","13209","300 Belle Island Road","102.7","0","Natural Gas","","0","102.7","0","0","0","0","0","0","0","0","0","0","EIA-860, EIA-860M and EIA-923","201705"
"United States","Chalk Point LLC","NRG Chalk Point LLC","","38.5444","-76.6861","Aquasco","Prince Georges","Maryland","20608","P.O.  10","2647","0","Natural Gas","","728","1868","51","0","0","0","0","0","0","0","0","0","EIA-860, EIA-860M and EIA-923","201705"
"United States","Chambers Cogeneration LP","US Operating Services Company","","39.693494","-75.485811","Carneys Point","Salem","New Jersey","8069","500 Shell Rd.","285","0","Coal","","285","0","0","0","0","0","0","0","0","0","0","0","EIA-860, EIA-860M and EIA-923","201705"
